name,dba,slug,type,url,is_bad_url,street_address,city,state,zip_code,country,lat,lng,phone,email,license_state
Native Black Cultivation,,native-black-cultivation,cultivator,nativeblackcultivation.com,,8115 Jones Dr,Bessemer,AL,35022,US,33.270254,-86.9795199,(773) 876-7791,,CULV000636
"Gulf Shore Remedies, LLC",,gulf-shore-remedies-llc,cultivator,N/A,,13310 Mary Ann Beach Rd,Fairhope,AL,36532,US,30.418095945775,-87.852313418928,(251) 421-2073,,CULV000302
"CRC of Alabama, LLC",,crc-of-alabama-llc,cultivator,crcofalabama.com,,529 John Anderson Dr,Goshen,AL,36035,US,31.7124961,-86.1296302,(334) 738-4225,,CULV000154
"Greenway Botanicals, LLC",,greenway-botanicals-llc,cultivator,N/A,,3990 County Road 63,Centre,AL,35960,US,34.189834320576,-85.636903990657,(305) 519-6405,,CULV000210
Twisted Herb Cultivation,,twisted-herb-cultivation,cultivator,N/A,,384 Ebenezer Rd,Georgiana,AL,36033,US,31.647423889942,-86.747342343299,(334) 368-0517,,CULV000407
I Am Farms,,i-am-farms,cultivator,N/A,,28988 U.S. Hwy 11,Knoxville,AL,35469,US,32.971217271346,-87.793228273224,(205) 242-8113,,CULV000533
"Creek Leaf Wellness, Inc.",,creek-leaf-wellness-inc,cultivator,creekleafwellness.com,,2901 3rd Ave N,Birmingham,AL,35203,US,33.522169943677,-86.794453576181,(833) 871-8800,,CULV000737
"Pure by Sirmon Farms, LLC",,pure-by-sirmon-farms-llc,cultivator,purebysirmonfarms.com,,25359 Co Rd 54 E,Daphne,AL,36526,US,30.594834918394,-87.826879660769,(251) 747-7530,,CULV000902
"Blackberry Farms, LLC",,blackberry-farms-llc,cultivator,blackberryfarmsal.com,,21258 U.S. Hwy 43,Northport,AL,35475,US,33.52970382484,-87.651848754892,(304) 381-5858,,CULV000835
SWC Prescott,"203 Organix, Llc",swc-prescott,other,,,123 E Merritt St,Prescott,AZ,86301,US,34.554888460595,-112.469097424537,(312) 819-5061,,00000070ESCO78837103
The Mint Dispensary,4245 Investments Llc,mint-dispensary,other,,,330 E Southern Ave #37,Mesa,AZ,85210,US,33.393391173167,-111.824178066404,(480) 664-1470,,00000036ESXU42814428
D2 Dispensary,46 Wellness Llc,d2-dispensary,other,,,7139 E 22nd St,Tucson,AZ,85710,US,32.206543292264,-110.840095051179,(520) 214-3232,,00000128ESJI00619914
Ponderosa Dispensary,"480 License Holdings, LLC",ponderosa-dispensary,other,,,25 East Blacklidge Drive,Tucson,AZ,85705,US,32.2612876617,-110.971700493014,480-201-0000,,0000154ESTQI31348041
Ponderosa Dispensary,"ABACA Ponderosa, LLC",ponderosa-dispensary,other,,,21035 N Cave Creek Rd Ste 3 & 4,Phoenix,AZ,85024,US,33.678335904825,-112.030999968787,(480) 213-1402,,00000116ESSM79524188
Trulieve of Tatum,Abedon Saiz Llc,trulieve-of-tatum,other,,,"16635 N tatum blvd, 110",Phoenix,AZ,85032,US,33.636373395263,-111.977713169256,770-330-0831,,00000052ESLX15969554
Absolute Health Care Inc,,absolute-health-care-inc,other,,,175 S Hamilton Pl Bldg 4 Ste 110,Gilbert,AZ,85233,US,33.344764800995,-111.832087521624,480-361-0078,,00000027ESMP88938972
Trulieve of Phoenix Alhambra,"Ad, Llc",trulieve-of-phoenix-alhambra,other,,,2630 W Indian School Rd,Phoenix,AZ,85017,US,33.495034276954,-112.115797850233,770-330-0831,,00000006ESWX56565424
AGI Management LLC,,agi-management-llc,other,,,1035 W Main St,Quartzsite,AZ,85346,US,33.663081891513,-114.233291550111,480-234-2343,,00000142ESIL74759395
All Greens Inc,,all-greens-inc,other,,,10032 W Bell Rd Ste 100,Sun City,AZ,85351,US,33.638209163458,-112.275432982555,(623) 214-0801,,00000033ESLY55591549
All Rebel Rockers Inc,,all-rebel-rockers-inc,other,,,4730 S 48th St,Phoenix,AZ,85040,US,33.403907815107,-111.978476136589,602-807-5005,,00000131ESYX97720376
Nature's Medicines,ANPS Holdco LLC,natures-medicines,other,,,"701 East Dunlap Avenue, Suite 9",Phoenix,AZ,85020,US,33.567705570515,-112.065157210977,(602) 903-3769,,00000096ESWI60030184
Apache County Dispensary LLC,,apache-county-dispensary-llc,other,,,900 East Main Street,Springerville,AZ,85938,US,34.1323361,-109.2735507,620-921-5967,,00000133ESGJ79432018
Apollo Labs,,apollo-labs,other,,,"17301 North Perimeter Drive, suite 100",Scottsdale,AZ,85255,US,33.640645071536,-111.896652410849,(917) 340-1566,,00000013LCRK62049775
Arizona Cannabis Society Inc,,arizona-cannabis-society-inc,other,,,8376 N El Mirage Rd Bldg 2 Ste 2,El Mirage,AZ,85335,US,33.557377143976,-112.324487519487,(888) 249-2927,,00000042ESJB38310180
"Arizona Golden Leaf Wellness, Llc",,arizona-golden-leaf-wellness-llc,other,,,5390 W Ina Rd,Marana,AZ,85743,US,32.3376372847,-111.080258153665,(520) 620-9123,,00000067ESBS89254298
Arizona Natures Wellness,,arizona-natures-wellness,other,,,1610 West State Route 89a,Sedona,AZ,86336,US,34.863389942707,-111.788778701006,928-202-3512,,00000030ESDG72791381
Arizona Organix,,arizona-organix,other,,,5303 W Glendale Ave,Glendale,AZ,85301,US,33.538436464565,-112.17278958045,(623) 937-2752,,00000095ESIP13817359
Nirvana Center,Arizona Tree Equity 2,nirvana-center,other,,,2209 South 6th Avenue,Tucson,AZ,85713,US,32.196418645419,-110.968339212411,(928) 642-2250,,0000170ESTVQ68678199
Arizona Wellness Center Safford,Arizona Wellness Center Safford LLC,arizona-wellness-center-safford,dispensary,,,1362 W Thatcher Blvd,Safford,AZ,85546,US,32.834960362526,-109.723818461009,(602) 323-4266,,0000142DRCLD76170272
Ponderosa Dispensary,"Arizona Wellness Collective 3, Inc",ponderosa-dispensary,other,,,1911 W Broadway Rd 23,Mesa,AZ,85202,US,33.407540354291,-111.87295550486,(480) 213-1402,,00000044ESZW01555573
TruMed Dispensary,Az Compassionate Care Inc,trumed-dispensary,other,,,1613 N 40th St,Phoenix,AZ,85008,US,33.465890697476,-111.99551531332,(602) 275-1279,,00000076ESON21559195
AZ Flower Power LLC,,az-flower-power-llc,other,,,11343 East Apache Trail,Apache Junction,AZ,85120,US,33.415034815627,-111.586462540034,(917) 375-3900,,0000148ESTMY68096274
AZC1,AZCL1,azc1,other,,,4695 N Oracle Rd Ste 117,Tucson,AZ,85705,US,32.291837884405,-110.978363129086,520-293-3315,,00000054ESDU93884651
Zen Leaf Chandler,"AZGM 3, LLC",zen-leaf-chandler,other,,,7200 W Chandler Blvd Ste 7,Chandler,AZ,85226,US,33.30534082313,-111.966335211341,312-819-5061,,00000040ESDX57445071
Greenleef Medical,Bailey Management LLC,greenleef-medical,other,,,253 Chase Creek St,Clifton,AZ,85533,US,33.056321364931,-109.302411773854,480-652-3622,,00000139ESDD30084191
"Blue Palo Verde 1, LLC",,blue-palo-verde-1-llc,other,,,"7710 South Wilmot Road, Suite 100",Tucson,AZ,85756,US,32.112972825319,-110.858024324878,586-855-6649,,0000150ESTPZ83854528
Sticky Saguaro,"Border Health, Inc",sticky-saguaro,other,,,12338 East Riggs Road,Chandler,AZ,85249,US,33.218940802639,-111.816439739481,(602) 644-9188,,00000022ESMC44584355
JARS Cannabis,Broken Arrow Herbal Center Inc,jars-cannabis,other,,,1732 W Commerce Point Pl,Sahuarita,AZ,85614,US,31.8967927,-111.002905,(520) 289-8030,,00000102ESWC76772229
The Flower Shop Az,"Buds & Roses, Inc",flower-shop-az,other,,,5205 E University Dr,Mesa,AZ,85205,US,33.422742572216,-111.718056701172,(480) 500-5054,,00000028ESVU53788832
Trulieve of Scottsdale Dispensary,Byers Dispensary Inc,trulieve-of-scottsdale-dispensary,other,,,15190 N Hayden Rd,Scottsdale,AZ,85260,US,33.623602229545,-111.903222061679,850-508-0261,,00000003ESPF54627423
SC Labs,C4 Laboratories,sc-labs,other,,,"7650 East Evans Rd Unit A, UNIT A",Scottsdale,AZ,85260,US,33.616571512254,-111.914927305238,(480) 219-6460,,00000005LCMI00301434
Releaf,Cactus Bloom Facilities Management LLC,releaf,other,,,436 Naugle Ave,Patagonia,AZ,85624,US,31.538828037769,-110.757187493566,520-982-9212,,00000144ESQK21738687
Sunday Goods,"Cardinal Square, Inc",sunday-goods,other,,,13150 W Bell Rd,Surprise,AZ,85378,US,33.638776166992,-112.343556879087,520-808-3111,,00000132ESFR75101840
Catalina Hills Botanical Care,Catalina Hills Botanical Care Inc,catalina-hills-botanical-care,other,,,2918 N Central Ave,Phoenix,AZ,85012,US,33.480463529474,-112.07384367928,602-466-1087,,00000025ESOX62486193
JARS Cannabis,Cjk Inc,jars-cannabis,other,,,"3411 E Corona Ave, 100",Phoenix,AZ,85040,US,33.405488566398,-112.007714592134,602 491-0420,,00000106ESEU57773093
Trulieve Of Sierra Vista,"Cochise County Wellness, LLC",trulieve-of-sierra-vista,other,,,"1633 S Highway 92, Ste 7",Sierra Vista,AZ,85635,US,31.539756110479,-110.257279745647,480-677-1755,,00000135ESGE19332725
Botanica,Copper State Herbal Center Inc,botanica,other,,,6205 N Travel Center Dr,Tucson,AZ,85741,US,32.31980770621,-111.047686476442,(520) 395-0230,,00000127ESET80222360
The Phoenix,CRG Holdco LLC,phoenix,other,,,9897 W McDowell Rd #720,Tolleson,AZ,85353,US,33.4631823,-112.2714382,(480) 420-0377,,00000104ESDH57805022
Sol Flower,"CSI Solutions, Inc.",sol-flower,other,,,14980 N 78th Way,Scottsdale,AZ,85260,US,33.621620419649,-111.908109133973,480-420-3300,,00000012ESIS11195422
Curious Cultivators I LLC,,curious-cultivators-i-llc,other,,,"200 London Bridge Road, 100",Lake Havasu City,AZ,86403,US,34.474625603399,-114.350563749589,(310) 694-4397,,0000155ESTWD37312465
Deeply Rooted Boutique Cannabis Company,Desert Boyz,deeply-rooted-boutique-cannabis-company,other,,,11725 NW Grand Ave,El Mirage,AZ,85335,US,33.6095785,-112.3140317,(480) 708-0296,,0000153ESTXW47689762
JARS Cannabis,Desert Medical Campus Inc,jars-cannabis,other,,,10040 N. Metro Parkway W,Phoenix,AZ,85051,US,33.579966621765,-112.121745221245,602-870-8700,,00000038ESPN59181329
Green Pharms,"Desertview Wellness & Healing Solutions, LLC",green-pharms,other,,,"600 South 80th Avenue, 100",Tolleson,AZ,85353,US,33.441990060804,-112.23253563866,(928) 522-6337,,00000077ESTT45790153
Devine Desert Healing Inc,,devine-desert-healing-inc,other,,,17201 N 19th Ave,Phoenix,AZ,85023,US,33.641895606541,-112.099651581731,602-388-4400,,00000026ESRZ88769978
JARS Cannabis,Dreem Green Inc,jars-cannabis,other,,,2412 East University Drive,Phoenix,AZ,85034,US,33.424090179661,-112.030044545879,(602) 675-6999,,00000078ESQG10647381
Nature's Wonder,DYNAMIC TRIO HOLDINGS LLC,natures-wonder,other,,,"6812 East Cave Creek Road, 2, 2A and 3",Cave Creek,AZ,85331,US,33.831550507994,-111.934314390799,480-861-3649,,0000146ESTKT01674214
Earth's Healing Inc,,earths-healing-inc,other,,,2075 E Benson Hwy,Tucson,AZ,85714,US,32.166850116017,-110.940845865393,(520) 373-5779,,00000112ESWR37460976
East Valley Patient Wellness Group Inc,,east-valley-patient-wellness-group-inc,other,,,13650 N 99th Ave,Sun City,AZ,85351,US,33.607474544001,-112.268375220682,(623) 246-8080,,00000019ESXY11403163
Mint Cannabis,Eba Holdings Inc.,mint-cannabis,other,,,8729 E Manzanita Dr,Scottsdale,AZ,85258,US,33.554387618913,-111.893035383087,(480) 749-6468,,00000068ESZM96727661
Encore Labs Arizona,,encore-labs-arizona,other,,,"16624 North 90th Street, #101",Scottsdale,AZ,85260,US,33.637267146393,-111.887163623436,(626) 653-3414,,0000034LRCRF78097578
Zanzibar,FJM Group LLC,zanzibar,other,,,60 W Main St,Quartzsite,AZ,85346,US,33.6669102,-114.2180164,(520) 907-2181,,00000141ESYC13235553
The Downtown Dispensary,Forever 46 Llc,downtown-dispensary,other,,,"221 E 6th St, Suite 105",Tucson,AZ,85705,US,32.227756295247,-110.968458707699,(520) 838-0492,,00000126ESDQ50929013
Zen Leaf Phoenix (Cave Creek Rd),"Fort Consulting, Llc",zen-leaf-phoenix-cave-creek-rd,other,,,12401 N Cave Creek Rd,Phoenix,AZ,85022,US,33.599324013332,-112.037205431004,312-819-5061,,00000064ESAK09838873
Trulieve of Tucson,"Fort Mountain Consulting, Llc",trulieve-of-tucson,other,,,4659 E 22nd St,Tucson,AZ,85711,US,32.2070112947,-110.893226871313,770-330-0831,,00000016ESBY46918805
"Full Spectrum Lab, LLC",,full-spectrum-lab-llc,other,,,"3865 E 34th St, Ste 109",Tucson,AZ,85713,US,32.195328963069,-110.910867561983,(520) 838-0695,,0000028LRCUW52326505
Farm Fresh,Fwa Inc,farm-fresh,other,,,790 N Lake Havasu Ave #4,Lake Havasu City,AZ,86404,US,34.497592165946,-114.347852944281,(928) 733-6339,,00000062ESGQ60020478
The Mint Dispensary,G.T.L. Llc,mint-dispensary,other,,,2444 W Northern Ave,Phoenix,AZ,85021,US,33.553190239507,-112.110871681577,(480) 749-6468,,00000034ESEZ92106085
JARS Cannabis,"Gila Dreams X, LLC",jars-cannabis,other,,,100 East State Highway 260,Payson,AZ,85541,US,34.240703009714,-111.322937899601,928-474-2420,,00000137ESPF58509627
Earth's Healing North,Globe Farmacy Inc,earths-healing-north,other,,,78 W River Rd,Tucson,AZ,85704,US,32.296138050061,-110.970712384624,520-253-7198,,00000108ESND56774062
Trulieve of Peoria Dispensary,Green Desert Patient Center Of Peoria,trulieve-of-peoria-dispensary,other,,,"9275 W Peoria Ave, Ste 104",Peoria,AZ,85345,US,33.580719578867,-112.257167859851,850-559-7734,,00000082ESUB29429633
Nature's Medicines,Green Hills Patient Center Inc,natures-medicines,other,,,"16913 East Enterprise Drive, 201, 202, 203",Fountain Hills,AZ,85268,US,33.596615491509,-111.714889284518,(928) 537-4888,,00000103ESEK38100955
Sunday Goods,"Green Lightning, LLC",sunday-goods,other,,,723 N Scottsdale Rd,Tempe,AZ,85281,US,33.4378613,-111.9255739,(480)-219-1300,,0000157ESTHZ07905975
Southern Arizona Integrated Therapies (Tucson SAINTS),Green Medicine,southern-arizona-integrated-therapies-tucson-saints,other,,,112 S Kolb Rd,Tucson,AZ,85710,US,32.219752068603,-110.84102141684,(520) 886-1003,,00000094ESMX02282810
Trulieve Bisbee Dispensary,Green Sky Patient Center Of Scottsdale North Inc,trulieve-bisbee-dispensary,other,,,1191 S Naco Hwy,Bisbee,AZ,85603,US,31.387921404056,-109.920547197003,850-559-7734,,00000081ESLT56066782
"Greenmed, Inc",,greenmed-inc,other,,,6464 E Tanque Verde Rd,Tucson,AZ,85715,US,32.244499486133,-110.85540683905,(520) 886-2484,,00000113ESLZ23317951
Marigold Dispensary,"Greens Goddess Products, Inc",marigold-dispensary,other,,,"2601 W. Dunlap Avenue, 21",Phoenix,AZ,85017,US,33.56751879595,-112.114299162712,(602) 900-4557,,00000061ESIG65334270
Grunge Free LLC,,grunge-free-llc,other,,,700 North Pinal Parkway Avenue,Florence,AZ,85132,US,33.03801673611,-111.379153043268,(917)375-3900,,0000160ESTDY36165846
Ponderosa Dispensary,"H4L Ponderosa, LLC",ponderosa-dispensary,other,,,7343 S 89th Pl,Mesa,AZ,85212,US,33.283175924043,-111.639889348049,(480) 213-1402,,00000118ESDH66162163
Healing Healthcare 3 Inc,,healing-healthcare-3-inc,other,,,"1040 E Camelback Rd, Ste A",Phoenix,AZ,85014,US,33.509275169559,-112.059243891987,602-354-3094,,00000020ESEN67630727
Consume Cannabis,"Health Center Navajo, Inc",consume-cannabis,other,,,1350 N Penrod Rd,Show Low,AZ,85901,US,34.261290485178,-110.019706863157,(520)808-3111,,00000091ESHS96689917
Herbal Wellness Center Inc,,herbal-wellness-center-inc,other,,,4126 W Indian School Rd,Phoenix,AZ,85019,US,33.495034715533,-112.147926009682,602-910-4152,,00000032ESPT83532730
Trulieve of Chandler Dispensary,High Desert Healing Llc,trulieve-of-chandler-dispensary,other,,,13433 E. Chandler Blvd. Suite A,Chandler,AZ,85225,US,33.30639059213,-111.792724034568,954-817-2370,,00000007ESWD35270682
Trulieve of Avondale Dispensary,High Desert Healing Llc,trulieve-of-avondale-dispensary,other,,,3828 S Vermeersch Rd,Avondale,AZ,85323,US,33.411191575975,-112.339009162444,954-817-2370,,00000014ESNA15249640
Ponderosa Dispensary,"High Mountain Health, Llc",ponderosa-dispensary,other,,,1250 S Plaza Way Ste A,Flagstaff,AZ,86001,US,35.18828550182,-111.662967374418,(928) 774-5467,,00000087ESWR93327597
Higher than High I LLC,,higher-than-high-i-llc,other,,,1302 West Industrial Drive,Coolidge,AZ,85128,US,32.967508812154,-111.541525485404,480-861-3649,,0000151ESTVN87881223
Holistic Patient Wellness Group,,holistic-patient-wellness-group,other,,,1322 N Mcclintock Dr,Tempe,AZ,85281,US,33.443286151853,-111.909533053463,(480) 795-6363,,00000015ESEM68131310
BEST Dispensary,Jamestown Center,best-dispensary,other,,,1962 N. Higley Rd,Mesa,AZ,85205,US,33.451200724582,-111.718871352427,623-264-2378,,00000046ESTW28902560
Jamestown Center,,jamestown-center,other,,,4104 E 32nd St,Yuma,AZ,85365,US,32.66987497484,-114.562463677217,(928) 344-1735,,00000045ESYU34105986
Joint Junkies I LLC,,joint-junkies-i-llc,other,,,26427 S Arizona Ave,Chandler,AZ,85248,US,33.207458084385,-111.840981066697,(928) 638-5831,,0000158ESTLH17620655
Juicy Joint I LLC,,juicy-joint-i-llc,other,,,"3550 North Lane, #110",Bullhead City,AZ,86442,US,35.052845267424,-114.587313215748,(928) 324-6062,,0000147ESTXX54706468
K Group Partners,K Group Partners Llc,k-group-partners,other,,,11200 W Michigan Ave Ste 5,Youngtown,AZ,85363,US,33.604310828478,-112.300719469864,623-444-5977,,00000029ESAA16670843
Sol Flower,Kannaboost Technology Inc,sol-flower,other,,,"2424 W University Dr, Ste. 101 & 119",Tempe,AZ,85281,US,33.421981769773,-111.975090408202,480-644-2071,,00000048ESNO41782628
Kaycha AZ LLC,,kaycha-az-llc,other,,,"1231 W Warner Rd, Ste 105",Tempe,AZ,85284,US,33.334484908607,-111.959303565999,(770) 365-7752,,00000024LCMD66604568
Kind Meds Inc,,kind-meds-inc,other,,,2152 S Vineyard St Ste 120,Mesa,AZ,85210,US,33.37544033161,-111.844096642389,(480) 686-9302,,00000088ESUZ76069650
Trulieve of Phoenix Dispensary,Kwerles Inc,trulieve-of-phoenix-dispensary,other,,,"2017 W. Peoria Avenue, Suite A",Phoenix,AZ,85029,US,33.582000184257,-112.102531890061,850-508-0261,,00000005ESIN89499585
"L1 Management, Llc",,l1-management-llc,other,,,1525 N. Granite Reef Rd.,Scottsdale,AZ,85257,US,33.464789874179,-111.900440948439,(602) 616-8167,,00000004LCIG00024823
JARS Cannabis,Lawrence Health Services LLC,jars-cannabis,other,,,"2250 Highway 60, Suite M",Globe,AZ,85501,US,33.4157104,-110.8263702,928-793-2550,,00000136ESTJ56415147
JARS Cannabis,"Legacy & Co., Inc.",jars-cannabis,other,,,"3001 North 24th Street, A",Phoenix,AZ,85016,US,33.48217617173,-112.03011129229,(623) 936-9333,,00000079ESTS64678211
Cookies,Life Changers Investments LLC,cookies,other,,,2715 South Hardy Drive,Tempe,AZ,85282,US,33.399931399186,-111.952059815055,(480) 452-7275,,0000156ESTDP70697204
Mint Cannabis,"M&T Retail Facility 1, LLC",mint-cannabis,other,,,1211 North 75th Avenue,Phoenix,AZ,85043,US,33.460965045014,-112.220577341328,480-749-6468,,00000101ESZO30906924
"MCCSE214, LLC",,mccse214-llc,other,,,1975 E Northern Ave,Kingman,AZ,86409,US,35.254024053822,-114.030379900568,928-263-6348,,0000164ESTEB22806734
"MCCSE240, LLC",,mccse240-llc,other,,,"12555 NW Grand Ave, B",El Mirage,AZ,85335,US,33.623106,-112.3325429,602-351-5450,,0000169ESTMB88870542
"MCCSE29, LLC",,mccse29-llc,other,,,12323 W Camelback Rd,Litchfield Park,AZ,85340,US,33.507454120619,-112.324172865795,(602) 903-3665,,0000149ESTUL49249395
"MCCSE82, LLC",,mccse82-llc,other,,,"46639 North Black Canyon Highway, 1-2",New River,AZ,85087,US,33.908690960588,-112.142285109416,928-299-5145,,0000165ESTJX05511145
"MCD-SE Venture 25, LLC",,mcd-se-venture-25-llc,other,,,"15235 North Dysart Road, 111 D",El Mirage,AZ,85335,US,33.622351537873,-112.342027147252,602-931-3663,,0000167ESTML86118201
"MCD-SE Venture 26, LLC",,mcd-se-venture-26-llc,other,,,120 N Power Rd,Mesa,AZ,85205,US,33.417443726046,-111.684572203676,602-931-3663,,0000162ESTOS80671885
Trulieve of Casa Grande,Medical Pain Relief Inc,trulieve-of-casa-grande,other,,,1860 E Salk Dr Ste B-1,Casa Grande,AZ,85122,US,32.8814201,-111.7071685,850-508-0261,,00000010ESIR42914838
Desert Bloom Releaf Center,Medmar Tanque Verde Llc,desert-bloom-releaf-center,other,,,8060 E 22nd St Ste 108,Tucson,AZ,85710,US,32.206365806376,-110.820814252594,520-886-1760,,00000039ESEZ33667642
MK Associates LLC,,mk-associates-llc,other,,,3270 AZ-82,Sonoita,AZ,85637,US,31.679745974708,-110.653028653832,(703) 915-2159,,00000143ESKB17654619
Ponderosa Dispensary,Mmj Apothecary,ponderosa-dispensary,other,,,"9240 West Northern Avenue, Ste. 103b",Peoria,AZ,85345,US,33.5527845,-112.258266,480-213-1402,,00000100ESEC12878172
JARS Cannabis,"Mohave Cannabis Club 1, LLC",jars-cannabis,other,,,4236 E Juanita Ave,Mesa,AZ,85206,US,33.382363135467,-111.742889090611,480-420-0064,,00000098ESAA47054477
JARS Cannabis,"Mohave Cannabis Club 2, LLC",jars-cannabis,other,,,20340 N Lake Pleasant Rd. Ste 107,Peoria,AZ,85382,US,33.668263935707,-112.280051454742,623-246-1065,,00000119ESKK32735375
JARS Cannabis,"Mohave Cannabis Club 3, LLC",jars-cannabis,other,,,"20224 N 27th Ave, Ste 103",Phoenix,AZ,85027,US,33.67067661253,-112.117350575872,623-233-5133,,00000122ESRN95872973
JARS Cannabis,"Mohave Cannabis Club 4, LLC",jars-cannabis,other,,,8028 E State Route 69,Prescott Valley,AZ,86314,US,34.585991729769,-112.325493248303,480-939-4002,,00000107ESVJ79465811
Trulieve of Roosevelt Row,"Mohave Valley Consulting, Llc",trulieve-of-roosevelt-row,other,,,1007 N 7th St,Phoenix,AZ,85006,US,33.458804623625,-112.065148305762,770-330-0831,,00000017ESMI32133238
Natural Herbal Remedies Inc,,natural-herbal-remedies-inc,other,,,3333 S Central Ave,Phoenix,AZ,85040,US,33.417084792262,-112.073500339885,480-739-0366,,00000058ESFA63267513
YiLo Superstore,Natural Relief Clinic Inc,yilo-superstore,other,,,4456 E Thomas Road,Phoenix,AZ,85018,US,33.480292752697,-111.985788197642,(520) 686-8708,,00000066ESUJ44186931
YiLo Superstore,Natural Relief Clinic Inc,yilo-superstore,other,,,2841 W Thunderbird Rd,Phoenix,AZ,85032,US,33.610781015906,-112.120056635084,(602) 539-2828,,00000073ESED95493026
Natural Remedy Patient Center,,natural-remedy-patient-center,other,,,"16277 N Greenway Hayden Loop, 1st Floor",Scottsdale,AZ,85260,US,33.633989126986,-111.907754140825,602-842-0020,,00000125ESMC92036121
Trulieve of Baseline Dispensary,Nature Med Inc,trulieve-of-baseline-dispensary,other,,,1821 W Baseline Rd,Guadalupe,AZ,85283,US,33.378176112333,-111.970885780743,850-508-0261,,00000056ESPE92908314
The Flower Shop Az,Nature's Healing Center Inc,flower-shop-az,other,,,3155 E Mcdowell Rd Ste 2,Phoenix,AZ,85008,US,33.46567258174,-112.013919040984,(480) 500-5054,,00000041ESLU31226658
The Flower Shop Az,Nature's Healing Center Inc,flower-shop-az,other,,,"10827 S 51st St, Ste 104",Phoenix,AZ,85044,US,33.348833059994,-111.975853206234,(480) 500-5054,,00000031ESCS44452076
Nature's Wonder Inc,,natures-wonder-inc,other,,,260 W Apache Trail Dr,Apache Junction,AZ,85120,US,33.416460612618,-111.548630230515,(480) 861-3649,,00000075ESJK64208740
Nirvana Center Dispensaries,"Nirvana Enterprises AZ, LLC",nirvana-center-dispensaries,other,,,2 North 35th Avenue,Phoenix,AZ,85009,US,33.447804708953,-112.134572699562,(480) 378-6917,,00000121ESBM38825533
Non Profit Patient Center Inc,,non-profit-patient-center-inc,other,,,"2960 West Grand Avenue, Bldg. A and B",Phoenix,AZ,85017,US,33.485502418149,-112.123703386315,480-861-3649,,00000037ESIX56363099
"Ocotillo Vista, Inc.",,ocotillo-vista-inc,other,,,2330 North 75th Avenue,Phoenix,AZ,85035,US,33.473331665393,-112.220796638652,602-786-7988,,00000051ESYP04501588
Organica Patient Group Inc,,organica-patient-group-inc,other,,,"1720 E. Deer Valley Rd., Suite 101",Phoenix,AZ,85204,US,33.687898144526,-112.045305828025,602-910-4152,,00000065ESNW69665422
Trulieve of Glendale,"Pahana, Inc.",trulieve-of-glendale,other,,,"13631 N 59th Ave, Ste B110",Glendale,AZ,85304,US,33.609214842189,-112.18578259552,850-508-0261,,00000018ESKD27426528
Zen Leaf Arcadia,"Patient Alternative Relief Center, LLC",zen-leaf-arcadia,other,,,2710 E Indian School Rd,Phoenix,AZ,85016,US,33.495059269899,-112.023463939192,312-819-5061,,00000086ESQZ01367420
Trulieve of Tucson Grant Dispensary,"Patient Care Center 301, Inc.",trulieve-of-tucson-grant-dispensary,other,,,2734 E Grant Rd,Tucson,AZ,85716,US,32.250294698856,-110.931837876292,850-559-7734,,00000004ESAN63639048
JARS Cannabis,Payson Dreams LLC,jars-cannabis,dispensary,,,108 N Tonto St,Payson,AZ,85541,US,34.24087805669,-111.327168584896,248-755-7633,,0000141DRCDP24213459
Zen Leaf Phoenix (Dunlap Ave.),"Perpetual Healthcare, LLC",zen-leaf-phoenix-dunlap-ave,other,,,4244 W Dunlap Rd Ste 1,Phoenix,AZ,85051,US,33.56757716641,-112.150258737072,312-819-5061,,00000105ESDR54985961
Phoenix Relief Center Inc,,phoenix-relief-center-inc,other,,,"6330 S 35th Ave, Ste 104",Phoenix,AZ,85041,US,33.389037,-112.1364945,(602) 276-3401,,00000047ESRJ75098505
Phytotherapeutics Of Tucson,,phytotherapeutics-of-tucson,other,,,2175 N 83rd Ave,Phoenix,AZ,85035,US,33.471860077528,-112.237781051816,623-244-5349,,00000049ESUK39624376
Pinal County Wellness Center,,pinal-county-wellness-center,other,,,8970 N 91st Ave,Peoria,AZ,85345,US,33.565817689052,-112.255154965214,623-233-1010,,00000059ESZW76539792
JARS Cannabis,Piper's Shop LLC,jars-cannabis,other,,,1809 W Thatcher Blvd,Safford,AZ,85546,US,32.834939434556,-109.728949534508,928-424-1313,,00000138ESOA91816349
Pleasant Plants I LLC,,pleasant-plants-i-llc,other,,,6676 West Bell Road,Glendale,AZ,85308,US,33.638356533327,-112.202439716374,(520) 727-7754,,0000159ESTFT57497963
Ponderosa Dispensary,Ponderosa Botanical Care Inc,ponderosa-dispensary,other,,,318 South Bracken Lane,Chandler,AZ,85224,US,33.298064493696,-111.890516379561,(623) 877-3934,,00000109ESVM44878444
Pp Wellness Center,,pp-wellness-center,other,,,8160 W Union Hills Dr Ste A106,Glendale,AZ,85308,US,33.652783574008,-112.23436440301,(623) 385-1310,,00000050ESTO08528992
Trulieve of Tucson Menlo Park Dispensary,Purplemed Inc,trulieve-of-tucson-menlo-park-dispensary,other,,,1010 S Fwy Ste 130,Tucson,AZ,85745,US,32.209293061683,-110.980178513113,850-559-7734,,00000130ESFL12611544
The Prime Leaf,Rainbow Collective Inc,prime-leaf,other,,,4220 E Speedway Blvd,Tucson,AZ,85712,US,32.236121533013,-110.902823325439,(520) 207-2753,,00000124ESOS02903622
Noble Herb,Rch Wellness Center,noble-herb,other,,,522 E Route 66,Flagstaff,AZ,86001,US,35.1959035,-111.6431314,(928) 351-7775,,00000080ESNP00364439
Arizona Natural Concepts,"Rjk Ventures, Inc.",arizona-natural-concepts,other,,,1039 East Carefree Highway,Phoenix,AZ,85085,US,33.798960538903,-112.060835405821,(602) 224-5999,,00000035ESBO39198288
"S Flower N Phoenix, Inc.",,s-flower-n-phoenix-inc,other,,,"3217 E Shea Blvd, Suite 1 A",Phoenix,AZ,85028,US,33.582440394369,-112.012701107203,(623) 582-0436,,00000093ESRF39774783
Sol Flower,"S Flower SE 1, Inc",sol-flower,other,,,6026 North Oracle Road,Tucson,AZ,85704,US,32.316483267473,-110.976036328768,602-828-7204,,0000166ESTNU15027116
Sol Flower,"S Flower SE 2, Inc.",sol-flower,other,,,"3000 West Valencia Road, Suite 210",Tucson,AZ,85746,US,32.133823311783,-111.030960276477,(602) 828-7204,,0000163ESTSO81819209
S Flower SE 3 Inc.,,s-flower-se-3-inc,other,,,"4837 North 1st Avenue, Ste 102",Tucson,AZ,85718,US,32.294524763243,-110.961243845914,602-828-7204,,0000171ESTSC03605413
"S Flower SE 4, Inc.",,s-flower-se-4-inc,other,,,6437 North Oracle Road,Tucson,AZ,85704,US,32.323443518132,-110.975056215728,(480) 720-2943,,0000152ESTNJ52349435
Cannabist,Salubrious Wellness Clinic Inc,cannabist,other,,,"520 S Price Rd, Ste 1 & 2",Tempe,AZ,85281,US,33.425451379025,-111.891959052316,(312) 819-5061,,00000071ESFP14031510
Sea Of Green Llc,,sea-of-green-llc,other,,,6844 East Parkway Norte,Mesa,AZ,85212,US,33.339026489806,-111.686236526755,(480) 325-5000,,00000057ESJG92466754
"Serenity Smoke, LLC",,serenity-smoke-llc,other,,,19 West Main Street,Springerville,AZ,85938,US,34.133780162636,-109.285939552783,602-904-1370,,00000134ESWD58732580
Trulieve Maricopa Dispensary,"Sherri Dunn, Llc",trulieve-maricopa-dispensary,other,,,44405 W. Honeycutt Avenue,maricopa,AZ,85139,US,33.057921622084,-112.044762830937,954-817-2370,,0000172ESTFM12469613
Trulieve of Cottonwood Dispensary,"Sherri Dunn, Llc",trulieve-of-cottonwood-dispensary,other,,,2400 E Sr 89a,Cottonwood,AZ,86326,US,34.721417275977,-112.000855775953,954-817-2370,,00000055ESFL28376770
Sky Analytical Laboratories,,sky-analytical-laboratories,other,,,1122 East Washington Street,Phoenix,AZ,85034,US,33.448336177825,-112.058355861045,(623) 262-4330,,0000036LRCZO44391934
Smithers CTS Arizona LLC,,smithers-cts-arizona-llc,other,,,"734 W Highland Avenue, 2nd floor",Phoenix,AZ,85013,US,33.505784443062,-112.082894610371,(954) 696-7791,,00000020LCVT89602592
The Clifton Bakery LLC,Sonoran Flower LLC,clifton-bakery-llc,other,,,700 S. CORONADO BLVD,CLIFTON,AZ,85533,US,33.044570396541,-109.292232764897,520-241-7777,,00000140ESDP54259308
Ponderosa Dispensary,"Soothing Ponderosa, LLC",ponderosa-dispensary,other,,,"5550 E Mcdowell Rd, Ste 103",Mesa,AZ,85215,US,33.466390113613,-111.710899879936,(480) 213-1402,,00000117ESPN93487198
Nature's Medicines,SSE Holdco LLC,natures-medicines,other,,,6840 West Grand Ave,Glendale,AZ,85301,US,33.555948098793,-112.206355357961,(623) 301-8478,,00000090ESFB63917979
Nature's Medicines,SSE Holdco LLC,natures-medicines,other,,,2439 W Mcdowell Rd,Phoenix,AZ,85009,US,33.465842685083,-112.111664428372,480-420-3145,,00000092ESKW00353670
Nirvana Center Dispensaries,"SSW Ventures, LLC",nirvana-center-dispensaries,other,,,702 East Buckeye Road,Phoenix,AZ,85034,US,33.436878710818,-112.065018252209,(602) 786-7988,,00000111ESTX14447382
Superior Organics,,superior-organics,other,,,211 S 57th Dr,Phoenix,AZ,85043,US,33.446084107962,-112.183052793596,(602) 926-9100,,00000123ESYS35386603
Trulieve of Apache Junction Dispensary,"Svaccha, Llc",trulieve-of-apache-junction-dispensary,other,,,1985 W Apache Trail Ste 4,Apache Junction,AZ,85120,US,33.414993565476,-111.567636248051,954-817-2370,,00000011ESVC04035599
Trulieve of Tempe Dispensary,"Svaccha, Llc",trulieve-of-tempe-dispensary,other,,,"710 W Elliot Rd, Ste 102",Tempe,AZ,85284,US,33.34924054995,-111.949495246202,954-817-2370,,00000009ESJA48286920
"Swallowtail 3, LLC",,swallowtail-3-llc,other,,,"5210 South Priest Dr, A, Suite A",Guadalupe,AZ,85283,US,33.3771873,-111.9637536,480-749-6468,,0000161ESTOJ23023764
Trulieve of Mesa North Dispensary,"Sweet 5, Llc",trulieve-of-mesa-north-dispensary,other,,,1150 W McLellan Rd,Mesa,AZ,85201,US,33.444046198417,-111.855330471445,770-330-0831,,00000013ESHH20255089
Fire. Dispensary,The Desert Valley Pharmacy Services Inc.,fire-dispensary,other,,,2825 W Thomas Rd,Phoenix,AZ,85017,US,33.480369585332,-112.120958759231,480-861-3649,,00000089ESLW87335751
Trulieve of Mesa South Dispensary,The Giving Tree Wellness Center Of Mesa Inc,trulieve-of-mesa-south-dispensary,other,,,938 E Juanita Ave,Mesa,AZ,85204,US,33.382202264678,-111.811411514373,850-559-7734,,00000008ESJT20615662
Giving Tree Dispensary,The Giving Tree Wellness Center Of North Phoenix Inc.,giving-tree-dispensary,other,,,701 West Union Hills Drive,Phoenix,AZ,85027,US,33.654591098016,-112.082866737549,(623) 242-9080,,00000023ESLL63816994
The Green Halo Llc,,green-halo-llc,other,,,3906 North Oracle Road,Tucson,AZ,85705,US,32.277617116847,-110.977997060383,(520) 664-2251,,00000120ESGW29293058
Lollipot,The Healing Center Farmacy Llc,lollipot,other,,,7235 E Hampton Ave Unit 115,Mesa,AZ,85209,US,33.389040514098,-111.675142700552,(480) 410-6704,,00000074ESMJ87013698
Health For Life Crismon,The Healing Center Wellness Center Llc,health-for-life-crismon,other,,,9949 E Apache Trail,Mesa,AZ,85207,US,33.415038567993,-111.616257744249,(480) 400-1170,,00000115ESJB22990289
Sunday Goods,The Health Center Of Cochise Inc,sunday-goods,other,,,1616 E. Glendale Ave.,Phoenix,AZ,85020,US,33.538312862352,-112.04718653916,520-808-3111,,00000099ESVM28064808
The Kind Relief Inc,,kind-relief-inc,other,,,18423 E San Tan Blvd Ste #1,Queen Creek,AZ,85142,US,33.212065079713,-111.685370773358,480-550-9121,,00000053ESYR15319850
Zen Leaf Mesa,The Medicine Room Llc,zen-leaf-mesa,other,,,550 W Mckellips Rd Bldg 1,Mesa,AZ,85201,US,33.4516188,-111.8432811,312-819-5061,,00000084ESFH12297246
Total Accountability Patient Care,,total-accountability-patient-care,other,,,1525 N. Park Ave,Tucson,AZ,85719,US,32.240846573666,-110.956850585379,(520) 586-8710,,00000114ESQS66067289
Total Accountability Systems I Inc,,total-accountability-systems-i-inc,other,,,6287 E Copper Hill Dr. Ste A,Prescott Valley,AZ,86314,US,34.58195036059,-112.354927015884,(928) 3505870,,00000110ESBL46708127
Oasis,Total Health & Wellness Inc,oasis,other,,,17006 S Weber Dr,Chandler,AZ,85226,US,33.294208061315,-111.970048725869,(480) 626-7333,,00000021ESQX24132908
Total Health & Wellness Inc,,total-health-wellness-inc,other,,,3830 North 7th Street,Phoenix,AZ,85014,US,33.491498759848,-112.065114682074,(623) 295-1788,,00000060ESTV86857950
Uncle Harry Inc,,uncle-harry-inc,other,,,17036 North Cave Creek Rd,Phoenix,AZ,85032,US,33.641022597547,-112.030923986927,(818) 822-9888,,00000129ESRG43839179
The Good Dispensary,Valley Healing Group Inc,good-dispensary,other,,,1842 W Broadway Rd,Mesa,AZ,85202,US,33.407656173664,-111.871493186597,(480) 900-8042,,00000072ESRF58078256
"Valley Of The Sun Medical Dispensary, Inc.",,valley-of-the-sun-medical-dispensary-inc,other,,,16200 W Eddie Albert Way,Goodyear,AZ,85338,US,33.4094628,-112.4069685,(623) 932-3859,,00000085ESVF25061802
Zen Leaf Gilbert,Vending Logistics Llc,zen-leaf-gilbert,other,,,5409 S Power Rd,Mesa,AZ,85212,US,33.3178034,-111.6861073,312-819-5061,,00000043ESPE02331128
Flor Verde Dispensary,"Verde Americano, LLC",flor-verde-dispensary,dispensary,,,1115 Circulo Mercado,Rio Rico,AZ,85648,US,31.470026598735,-110.999336696367,(225) 329-7273,,0000144DRCUM87865142
Medusa Farms,Verde Dispensary Inc,medusa-farms,other,,,3490 N Bank St,Kingman,AZ,86409,US,35.223441275233,-114.011404756879,(928) 421-0020,,00000063ESQI60809124
White Mountain Health Center Inc,,white-mountain-health-center-inc,other,,,9420 W Bell Rd Ste 108,Sun City,AZ,85351,US,33.638253702184,-112.263102562008,(623) 374-4141,,00000083ESGB09219996
Whoa Qc Inc,,whoa-qc-inc,other,,,5558 W. Bell Rd.,Glendale,AZ,85308,US,33.638919242628,-112.179119142513,602-535-0999,,00000069ESPV40435704
Wickenburg Alternative Medicine Llc,,wickenburg-alternative-medicine-llc,other,,,"12620 N Cave Creek Road, Ste 1",Phoenix,AZ,85022,US,33.600697819721,-112.037205822173,(623) 478-2233,,00000097ESKC38985532
Woodstock 1,,woodstock-1,other,,,"1629 N 195 Ave, 101",Buckeye,AZ,85396,US,33.465895147704,-112.478716343699,602-980-1505,,0000168ESTBM41952754
JARS Cannabis,Yuma County Dispensary LLC,jars-cannabis,other,,,3345 E County 15th St,Somerton,AZ,85350,US,32.611048162664,-114.647436107187,928-919-8667,,00000145ESNP12373673
Zonacare,,zonacare,other,,,4415 East Monroe Street,Phoenix,AZ,85034,US,33.449605913167,-111.986921313186,602-396-5757,,00000024ESUV84524312
10TH STREET FACILITIES LLC,,10th-street-facilities-llc,other,,,Not Published,Data Not Available,CA,Data Not Available,US,,,(205) 523-4966,10thstfacilities@gmail.Com,C11-0000596-LIC
"1244 Long Beach Distro, LLC",,1244-long-beach-distro-llc,other,,,Not Published,Data Not Available,CA,Data Not Available,US,,,(949) 241-4229,Lbdistrolicensing@gmail.Com,C11-0001927-LIC
"130 WILLOW CREEK OPCO, LLC",,130-willow-creek-opco-llc,other,,,Not Published,Data Not Available,CA,Data Not Available,US,,,(949) 727-4333,Rob@peloruscg.Com,C11-0002056-LIC
Data Not Available,"1416 Elwood, LLC",data-not-available,other,,,Not Published,Data Not Available,CA,Data Not Available,US,,,(424) 222-2444,1416elwood@gmail.Com,C11-0001658-LIC
1542 7TH INC,,1542-7th-inc,other,,,Not Published,Data Not Available,CA,Data Not Available,US,,,(716) 225-8735,Denisapiccione@gmail.Com,C11-0000474-LIC
Data Not Available,"17325 Muskrat, Inc",data-not-available,other,,,Not Published,Data Not Available,CA,Data Not Available,US,,,(818) 306-4444,Nshano@hotmail.Com,C11-0001599-LIC
"17k Muskrat 2, Inc.",,17k-muskrat-2-inc,other,,,Not Published,Data Not Available,CA,Data Not Available,US,,,(714) 717-0400,Sakotatarian@yahoo.Com,C11-0001149-LIC
190 SAM LLC,,190-sam-llc,other,,,Not Published,Data Not Available,CA,Data Not Available,US,,,(949) 903-9136,Jonas@herbes.Com,C11-0002007-LIC
"1919 Building, Inc",,1919-building-inc,other,,,Not Published,Data Not Available,CA,Data Not Available,US,,,(818) 279-3680,Av.Globalremodeling@gmail.Com,C11-0001839-LIC
1LDX,1ldx LLC,1ldx,other,,,Not Published,Data Not Available,CA,Data Not Available,US,,,(408) 797-9800,Ian@oneloghouse.Com,C11-0000342-LIC
Data Not Available,2020 Long Beach LLC,data-not-available,other,,,Not Published,Data Not Available,CA,Data Not Available,US,,,(818) 667-2780,Alexrahardja@gmail.Com,C11-0001115-LIC
"2020 Railroad Holdings, LLC",,2020-railroad-holdings-llc,other,,,Not Published,Data Not Available,CA,Data Not Available,US,,,(916) 582-8005,Licensing@railroadholdings.Com,C11-0001905-LIC
20800 SPENCE ROAD LLC,,20800-spence-road-llc,other,,,Not Published,Data Not Available,CA,Data Not Available,US,,,(253) 579-3762,Jeff@lowellfarms.Com,C11-0001881-LIC
2130 SOUTH YALE DISTRO LLC,,2130-south-yale-distro-llc,other,,,Not Published,Data Not Available,CA,Data Not Available,US,,,(562) 280-7414,Ryan.Rezaie@gmail.Com,C11-0001776-LIC
Soful,2317 Distribution LLC,soful,other,,,Not Published,Data Not Available,CA,Data Not Available,US,,,(415) 794-3363,Eli@solful.Com,C11-0001851-LIC
Data Not Available,2338 Anaheim Industries LLC,data-not-available,other,,,Not Published,Data Not Available,CA,Data Not Available,US,,,(562) 280-7414,Licensing@nextgenenterprises.Biz,C11-0001638-LIC
Solful,2445 Manufacturing LLC,solful,other,,,Not Published,Data Not Available,CA,Data Not Available,US,,,(415) 794-3363,Eli@solful.Com,C11-0002073-LIC
2905 halladay distro llc,,2905-halladay-distro-llc,other,,,Not Published,Data Not Available,CA,Data Not Available,US,,,(949) 355-5909,2905halldaydistrodcc@gmail.Com,C11-0001822-LIC
Bad Seed,"2bmj Mgmt, LLC",bad-seed,other,,,Not Published,Data Not Available,CA,Data Not Available,US,,,(973) 418-1044,Zhannabasina@gmail.Com,C11-0001647-LIC
"2JC, LLC",,2jc-llc,other,,,Not Published,Data Not Available,CA,Data Not Available,US,,,(916) 243-6982,Regulatory@connectedca.Com,C11-0001367-LIC
"360 Pacifc, LLC","360 Pacific, LLC",360-pacifc-llc,other,,,Not Published,Data Not Available,CA,Data Not Available,US,,,(949) 294-2152,Jeffdcann@gmail.Com,C11-0001362-LIC
Data Not Available,3701 Moore Production LLC,data-not-available,other,,,Not Published,Data Not Available,CA,Data Not Available,US,,,(949) 357-9873,Hsraymondcheng@gmail.Com,C11-0001718-LIC
Boardwalk Extracts,410 Extracts Incorporated,boardwalk-extracts,other,,,Not Published,Data Not Available,CA,Data Not Available,US,,,(415) 650-8015,William@bloomnetwork.Io,C11-0001006-LIC
5300 N LLC,,5300-n-llc,other,,,Not Published,Data Not Available,CA,Data Not Available,US,,,(916) 813-2888,5300nLLC@gmail.Com,C11-0002053-LIC
Headwaters,"5mil Logistics, LLC",headwaters,other,,,Not Published,Data Not Available,CA,Data Not Available,US,,,(805) 881-3102,Info@goheadwaters.Com,C11-0000293-LIC
Delta Boyz Distribution,"66 Main Group, LLC",delta-boyz-distribution,other,,,Not Published,Data Not Available,CA,Data Not Available,US,,,(510) 725-7240,Isletoncali@hotmail.Com,C11-0000460-LIC
Tree Lab LA,7030haven LLC,tree-lab-la,other,,,Not Published,Data Not Available,CA,Data Not Available,US,,,(818) 292-0218,7030havenLLC@gmail.Com,C11-0001856-LIC
Solful,793 Distribution LLC,solful,other,,,Not Published,Data Not Available,CA,Data Not Available,US,,,(415) 794-3363,Eli@solful.Com,C11-0001875-LIC
7 Points,"7points Group, Inc.",7-points,other,,,Not Published,Data Not Available,CA,Data Not Available,US,,,(661) 378-4555,Wbishop@7points.Biz,C11-0001200-LIC
818 Brands Los Angeles,818 Brands Los Angeles LLC,818-brands-los-angeles,other,,,Not Published,Data Not Available,CA,Data Not Available,US,,,(310) 987-6670,Rami@818brands.Com,C11-0001639-LIC
KOLAS & KILOS,8583 Ecr 400 LLC,kolas-kilos,other,,,Not Published,Data Not Available,CA,Data Not Available,US,,,(775) 240-3055,Compliance@ccmup.Com,C11-0001944-LIC
North South Distribution,888 Lay LLC,north-south-distribution,other,,,Not Published,Data Not Available,CA,Data Not Available,US,,,(847) 502-5788,Nick@northsouthdistro.Com,C11-0000129-LIC
98 Leaf,98 Leaf LLC,98-leaf,other,,,Not Published,Data Not Available,CA,Data Not Available,US,,,(760) 246-0001,Lipy@98leaf.Com,C11-0001293-LIC
A Grade Distribution,,a-grade-distribution,other,,,Not Published,Data Not Available,CA,Data Not Available,US,,,(415) 517-3211,Bc@honeybutterrosin.Com,C11-0001889-LIC
Spinach Venture,"Aaa Construction Group Ii, LLC",spinach-venture,other,,,Not Published,Data Not Available,CA,Data Not Available,US,,,(626) 701-6110,Koala.Farm.Ca@gmail.Com,C11-0001969-LIC
AAA Stars Alliance LLC,,aaa-stars-alliance-llc,other,,,Not Published,Data Not Available,CA,Data Not Available,US,,,(818) 296-5317,Arramca@hotmail.Com,C11-0000414-LIC
"AARE INVESTMENT, LLC",,aare-investment-llc,other,,,Not Published,Data Not Available,CA,Data Not Available,US,,,(909) 261-6629,Steve@ca420properties.Com,C11-0001962-LIC
ABC Commerce LLC,,abc-commerce-llc,other,,,Not Published,Data Not Available,CA,Data Not Available,US,,,(818) 395-8375,AbccommerceLLC@gmail.Com,C11-0001709-LIC
State Flower,Abi Sf LLC,state-flower,other,,,Not Published,Data Not Available,CA,Data Not Available,US,,,(510) 816-4200,Daniel@stateflowercannabis.Com,C11-0000300-LIC
"Abundense, LLC",,abundense-llc,other,,,Not Published,Data Not Available,CA,Data Not Available,US,,,(949) 243-1239,Iamdduong@gmail.Com,C11-0001679-LIC
The Pairist,"Ace Creations, LLC",pairist,other,,,Not Published,Data Not Available,CA,Data Not Available,US,,,(415) 742-9622,Ardi@synanda.Com,C11-0000443-LIC
Acme Distribution LLC,,acme-distribution-llc,other,,,Not Published,Data Not Available,CA,Data Not Available,US,,,(808) 344-1977,Johnbrownmendo@gmail.Com,C11-0000411-LIC
Noble-Pacific,"Adams St. Enterprises, LLC",noble-pacific,other,,,Not Published,Data Not Available,CA,Data Not Available,US,,,(619) 987-3776,Accounting@noble-Pacific.Com,C11-0002051-LIC
"ADELANTO GROUP, LLC",,adelanto-group-llc,other,,,Not Published,Data Not Available,CA,Data Not Available,US,,,(213) 392-5559,AdelantogroupLLC@gmail.Com,C11-0001580-LIC
AGC DISTRIBUTION LLC,,agc-distribution-llc,other,,,Not Published,Data Not Available,CA,Data Not Available,US,,,(732) 692-4516,Agc.Cage@gmail.Com,C11-0000437-LIC
Data Not Available,Ahcom Mgmt Co LLC,data-not-available,other,,,Not Published,Data Not Available,CA,Data Not Available,US,,,(310) 433-2669,Spencer@zomacannabis.Com,C11-0001368-LIC
Airway Industries,Airway Industries Inc.,airway-industries,other,,,Not Published,Data Not Available,CA,Data Not Available,US,,,(707) 321-6180,Rymlong@gmail.Com,C11-0001652-LIC
Alaf Inc.,,alaf-inc,other,,,Not Published,Data Not Available,CA,Data Not Available,US,,,(949) 466-4688,Luxury.Estates@sbcglobal.Net,C11-0001410-LIC
Artemis CoPack,"Alchemy 29, LLC",artemis-copack,other,,,Not Published,Data Not Available,CA,Data Not Available,US,,,(530) 379-8588,Autumn@artemiscopack.Com,C11-0001728-LIC
ALIEN AI,,alien-ai,other,,,Not Published,Data Not Available,CA,Data Not Available,US,,,(415) 889-0048,Ai.Alien.Inc@gmail.Com,C11-0002024-LIC
All Season Organics,"All Season Organics, LLC",all-season-organics,other,,,Not Published,Data Not Available,CA,Data Not Available,US,,,(209) 458-8440,Allseasonorganics@gmail.Com,C11-0002006-LIC
ALM Management,"Alm Management, LLC",alm-management,other,,,Not Published,Data Not Available,CA,Data Not Available,US,,,(818) 434-4583,Suzyponch@gmail.Com,C11-0001696-LIC
Data Not Available,Alpha Core Inc,data-not-available,other,,,Not Published,Data Not Available,CA,Data Not Available,US,,,(510) 900-9687,Rachel@alphacoreinfo.Com,C11-0001596-LIC
Always Proper Distribution Inc,"Always Proper Distribution, Inc.",always-proper-distribution-inc,other,,,Not Published,Data Not Available,CA,Data Not Available,US,,,(707) 630-1142,Properwellnesscenter@gmail.Com,C11-0001351-LIC
AMD Distribution Inc.,,amd-distribution-inc,other,,,Not Published,Data Not Available,CA,Data Not Available,US,,,(818) 921-0057,Amddistributioninc@gmail.Com,C11-0002004-LIC
Jetty Extracts,Ametrine Wellness,jetty-extracts,other,,,Not Published,Data Not Available,CA,Data Not Available,US,,,(201) 966-8008,Info@jettyextracts.Com,C11-0000374-LIC
TRULEAF DISTRIBUTORS,Amg Dynamic Enterprises Inc.,truleaf-distributors,other,,,Not Published,Data Not Available,CA,Data Not Available,US,,,(760) 562-8008,Truleaph.Co@gmail.Com,C11-0001203-LIC
OAKFRUITLAND,"Ammerdine, LLC",oakfruitland,other,,,Not Published,Data Not Available,CA,Data Not Available,US,,,(760) 799-3636,AmmerdineLLC@gmail.Com,C11-0000121-LIC
"ANAT GROUP, INC.",,anat-group-inc,other,,,Not Published,Data Not Available,CA,Data Not Available,US,,,(310) 990-4450,Anatgroupinc@gmail.Com,C11-0000385-LIC
Data Not Available,Ant Green LLC,data-not-available,other,,,Not Published,Data Not Available,CA,Data Not Available,US,,,(415) 941-8808,AntgreenLLC@gmail.Com,C11-0001949-LIC
Apollo Cultivation Management LLC,"Apollo Cultivation Management, LLC",apollo-cultivation-management-llc,other,,,Not Published,Data Not Available,CA,Data Not Available,US,,,(949) 793-2766,Cameron.Kojima@kojimadevelopment.Com,C11-0001066-LIC
Delta 9 Elements Distribution,Apotheca Holdings LLC,delta-9-elements-distribution,other,,,Not Published,Data Not Available,CA,Data Not Available,US,,,(321) 914-6342,Barbosaamber16@gmail.Com,C11-0001276-LIC
DANK SoCal,"Aralo Enterprises, LLC",dank-socal,other,,,Not Published,Data Not Available,CA,Data Not Available,US,,,(949) 466-7224,AraloenterprisesLLC@gmail.Com,C11-0000885-LIC
ARBALA WEED LLC,,arbala-weed-llc,other,,,Not Published,Data Not Available,CA,Data Not Available,US,,,(602) 421-0038,Kshapkarov@yahoo.Com,C11-0001275-LIC
GREEN LABEL RX,Arg Group LLC,green-label-rx,other,,,Not Published,Data Not Available,CA,Data Not Available,US,,,(909) 680-9419,Jason@greenlabelrx.Com,C11-0001834-LIC
Upper Echelon Distribution,"Artisan Canna Cigars, LLC",upper-echelon-distribution,other,,,Not Published,Data Not Available,CA,Data Not Available,US,,,(707) 853-1005,Orders@artisancannacigars.Com,C11-0001144-LIC
"ASH CAPITAL, INC.",,ash-capital-inc,other,,,Not Published,Data Not Available,CA,Data Not Available,US,,,(646) 209-9682,Natalie.Bogdanov@gmail.Com,C11-0001369-LIC
Off the Charts,Ash's Third LLC,off-the-charts,other,,,Not Published,Data Not Available,CA,Data Not Available,US,,,(949) 291-0587,Maddocks@greencp.Com,C11-0002022-LIC
710 LABS,"Asv Eq 3, LLC",710-labs,other,,,Not Published,Data Not Available,CA,Data Not Available,US,,,(310) 788-3445,Compliance@710labs.Com,C11-0001322-LIC
710 LABS,"Asv Eq 3, LLC",710-labs,other,,,Not Published,Data Not Available,CA,Data Not Available,US,,,(310) 788-3445,Compliance@710labs.Com,C11-0001586-LIC
Data Not Available,"Aureus Dhs, LLC",data-not-available,other,,,Not Published,Data Not Available,CA,Data Not Available,US,,,(925) 699-2198,Pjacobson97@gmail.Com,C11-0001556-LIC
"Autumn Brands, LLC",,autumn-brands-llc,other,,,Not Published,Data Not Available,CA,Data Not Available,US,,,(805) 689-0257,Autumn@autumnbrands.Com,C11-0001789-LIC
Data Not Available,"Autumn Brands, LLC",data-not-available,other,,,Not Published,Data Not Available,CA,Data Not Available,US,,,(805) 689-0257,Autumn@autumnbrands.Com,C11-0001978-LIC
Auxin Operative LLC,,auxin-operative-llc,other,,,Not Published,Data Not Available,CA,Data Not Available,US,,,(323) 645-7669,Rebeccalopezla@gmail.Com,C11-0000747-LIC
BALL FAMILY FARMS CORPORATION,,ball-family-farms-corporation,other,,,Not Published,Data Not Available,CA,Data Not Available,US,,,(213) 444-9277,Ballfamilyfarms55@gmail.Com,C11-0000222-LIC
Data Not Available,"Bare Farms Distribution, LLC",data-not-available,other,,,Not Published,Data Not Available,CA,Data Not Available,US,,,(818) 219-3572,Barewoods1@gmail.Com,C11-0001068-LIC
California Caregivers Alliance,Barr Corporation,california-caregivers-alliance,other,,,Not Published,Data Not Available,CA,Data Not Available,US,,,(213) 353-0100,Buyer4cca@gmail.Com,C11-0000345-LIC
BAVANA LLC,"Bavana, LLC",bavana-llc,other,,,Not Published,Data Not Available,CA,Data Not Available,US,,,(424) 610-7777,Patrick@goldengaminggroup.Com,C11-0002034-LIC
Be Kind Distribution,Be Kind Production LLC,be-kind-distribution,other,,,Not Published,Data Not Available,CA,Data Not Available,US,,,(925) 550-7838,Dridley@bekindproduction.Com,C11-0000043-LIC
"Beachwood Industries, LLC",,beachwood-industries-llc,other,,,Not Published,Data Not Available,CA,Data Not Available,US,,,(516) 710-0420,Daninc7@gmail.Com,C11-0001673-LIC
"Beatitude, LLC",,beatitude-llc,other,,,Not Published,Data Not Available,CA,Data Not Available,US,,,(818) 326-6688,Armen@mae.La,C11-0001214-LIC
Jet Freight,"Beaver Freight, Inc.",jet-freight,other,,,Not Published,Data Not Available,CA,Data Not Available,US,,,(909) 963-8849,Mcastaneda85@gmail.Com,C11-0000037-LIC
Golden Barn (CA),"Begk, Inc.",golden-barn-ca,other,,,Not Published,Data Not Available,CA,Data Not Available,US,,,(832) 656-0735,Ken@goldenbarn.Com,C11-0000561-LIC
"BELO, INC",,belo-inc,other,,,Not Published,Data Not Available,CA,Data Not Available,US,,,(510) 697-7036,Yujiang1212@gmail.Com,C11-0001189-LIC
"BELO, INC.",,belo-inc,other,,,Not Published,Data Not Available,CA,Data Not Available,US,,,(510) 603-9133,Junyi1212@gmail.Com,C11-0000607-LIC
Maui Ben Farms,Ben Butler,maui-ben-farms,other,,,Not Published,Data Not Available,CA,Data Not Available,US,,,(707) 489-2039,Mauiben707@gmail.Com,C11-0000398-LIC
Big Pete's LLC,,big-petes-llc,other,,,Not Published,Data Not Available,CA,Data Not Available,US,,,(831) 239-0505,Petejr@bigpetestreats.Com,C11-0001964-LIC
BIOSGROVE TECHNOLOGY,,biosgrove-technology,other,,,Not Published,Data Not Available,CA,Data Not Available,US,,,(310) 954-6680,Pinkbobocat@yahoo.Com,C11-0000430-LIC
Bishop Boyz LLC,,bishop-boyz-llc,other,,,Not Published,Data Not Available,CA,Data Not Available,US,,,(310) 893-4856,Bishop1623@gmail.Com,C11-0001847-LIC
BLACK SWAN DISTRIBUTION,"Black Swan Distribution, LLC.",black-swan-distribution,other,,,Not Published,Data Not Available,CA,Data Not Available,US,,,(213) 332-3245,Avetismanjikian@yahoo.Com,C11-0001611-LIC
BLESSED EXTRACTS LLC,,blessed-extracts-llc,other,,,Not Published,Data Not Available,CA,Data Not Available,US,,,(413) 313-1648,Amelia@blessedextracts.Com,C11-0000984-LIC
Bleu Diamond LLC,,bleu-diamond-llc,other,,,Not Published,Data Not Available,CA,Data Not Available,US,,,(805) 335-3645,Bleudiamond@gmail.Com,C11-0001181-LIC
Exhalence,"Boo Ku Cc, Inc.",exhalence,other,,,Not Published,Data Not Available,CA,Data Not Available,US,,,(818) 394-9094,Exhalence@yahoo.Com,C11-0000317-LIC
BOSKY GENETICS LLC,,bosky-genetics-llc,other,,,Not Published,Data Not Available,CA,Data Not Available,US,,,(559) 827-3106,Rclark@boskygenetics.Com,C11-0001810-LIC
Boyle Brothers 411,"Boyle Brothers 411, LLC",boyle-brothers-411,other,,,Not Published,Data Not Available,CA,Data Not Available,US,,,(626) 641-5107,Boylebrothersla@gmail.Com,C11-0001999-LIC
Data Not Available,"Brabus Holdings, Inc.",data-not-available,other,,,Not Published,Data Not Available,CA,Data Not Available,US,,,(510) 812-1600,Brabusinc18@gmail.Com,C11-0000765-LIC
Brand Faction Ca Inc.,,brand-faction-ca-inc,other,,,Not Published,Data Not Available,CA,Data Not Available,US,,,(513) 532-5600,Andrew@medbev.Com,C11-0001535-LIC
BRB CALIFORNIA LLC,,brb-california-llc,other,,,Not Published,Data Not Available,CA,Data Not Available,US,,,(203) 550-3679,Scott.Ogur@bellrockbrands.Com,C11-0001897-LIC
Breez CA LLC,,breez-ca-llc,other,,,Not Published,Data Not Available,CA,Data Not Available,US,,,(303) 518-3510,Awalters@post.Harvard.Edu,C11-0001415-LIC
Data Not Available,"Brix Farms And Vineyard, Inc.",data-not-available,other,,,Not Published,Data Not Available,CA,Data Not Available,US,,,(707) 758-1654,Humphreymathew@gmail.Com,C11-0001594-LIC
BROADWAY DISTRO LLC,,broadway-distro-llc,other,,,Not Published,Data Not Available,CA,Data Not Available,US,,,(562) 342-4855,Broadwaydistrolb@gmail.Com,C11-0001354-LIC
Broda jonz,Broda Jonz LLC,broda-jonz,other,,,Not Published,Data Not Available,CA,Data Not Available,US,,,(925) 785-6701,Haris.Yonisi@gmail.Com,C11-0002037-LIC
Brothers Hempire LLC,,brothers-hempire-llc,other,,,Not Published,Data Not Available,CA,Data Not Available,US,,,(818) 269-3989,Ptralfaro@yahoo.Com,C11-0001755-LIC
BSeen,Bseen LLC,bseen,other,,,Not Published,Data Not Available,CA,Data Not Available,US,,,(916) 248-2049,Matt.S@ccmup.Com,C11-0000501-LIC
Leaf Logic,Bth LLC,leaf-logic,other,,,Not Published,Data Not Available,CA,Data Not Available,US,,,(928) 450-5889,Bthlicensing@gmail.Com,C11-0002057-LIC
The Apothecarium Berkeley,"Bthhm Berkeley, LLC",apothecarium-berkeley,other,,,Not Published,Data Not Available,CA,Data Not Available,US,,,(510) 558-2247,Info@apothecarium.Com,C11-0001857-LIC
"BTJ VENTURES, INC",,btj-ventures-inc,other,,,Not Published,Data Not Available,CA,Data Not Available,US,,,(949) 482-7058,Khrisspain@gmail.Com,C11-0000646-LIC
Fog City Farms,"Btw Industries, Inc.",fog-city-farms,other,,,Not Published,Data Not Available,CA,Data Not Available,US,,,(831) 761-5578,Kelly@fogcityfarms.Org,C11-0001158-LIC
Fog City Farms,"Btw Industries, Inc.",fog-city-farms,other,,,Not Published,Data Not Available,CA,Data Not Available,US,,,(831) 761-5578,Kelly@fogcityfarms.Org,C11-0001675-LIC
Data Not Available,Bud Technology,data-not-available,other,,,Not Published,Data Not Available,CA,Data Not Available,US,,,(949) 933-7961,Ray@budtechnology.Com,C11-0000001-LIC
Bud Technology,,bud-technology,other,,,Not Published,Data Not Available,CA,Data Not Available,US,,,(949) 933-7961,Rayiskander1@gmail.Com,C11-0001413-LIC
Buddiez LLC,,buddiez-llc,other,,,Not Published,Data Not Available,CA,Data Not Available,US,,,(858) 472-6718,Buddiez.LLC@gmail.Com,C11-0001939-LIC
"BUDS & ROSES COLLECTIVE, INC.",,buds-roses-collective-inc,other,,,Not Published,Data Not Available,CA,Data Not Available,US,,,(818) 907-8852,Ajustis@budsandrosesla.Com,C11-0000226-LIC
Burr's Place,Burr's Place Organics,burrs-place,other,,,Not Published,Data Not Available,CA,Data Not Available,US,,,(209) 352-6291,Burrsmountain@gmail.Com,C11-0001542-LIC
Data Not Available,Buttonwood Tree LLC,data-not-available,other,,,Not Published,Data Not Available,CA,Data Not Available,US,,,(831) 588-4830,Coastabella@gmail.Com,C11-0000710-LIC
"CA Manufacturing Solutions, LLC",,ca-manufacturing-solutions-llc,other,,,Not Published,Data Not Available,CA,Data Not Available,US,,,(562) 264-5078,Compliance@glasshousegroup.Com,C11-0000031-LIC
Cabo Connection,,cabo-connection,other,,,Not Published,Data Not Available,CA,Data Not Available,US,,,(844) 287-8732,Owner5@humblecs.Us,C11-0000488-LIC
"Cabot Management, LLC",Cabot Management LLC,cabot-management-llc,other,,,Not Published,Data Not Available,CA,Data Not Available,US,,,(323) 775-3579,Andrey@americannmade.Com,C11-0001892-LIC
CAC Associates,,cac-associates,other,,,Not Published,Data Not Available,CA,Data Not Available,US,,,(510) 246-4256,E1987ba@gmail.Com,C11-0001619-LIC
CAL TRACK DISTRIBUTIONS LLC,,cal-track-distributions-llc,other,,,Not Published,Data Not Available,CA,Data Not Available,US,,,(310) 895-4838,Ibuy4cash@gmail.Com,C11-0000965-LIC
calaveras little trees,Calaveras Naturals Inc,calaveras-little-trees,other,,,Not Published,Data Not Available,CA,Data Not Available,US,,,(209) 890-3647,Jeremy+bcc@calaveraslittletrees.Com,C11-0001868-LIC
Cali Bangers,"Cali Bangers, Inc.",cali-bangers,other,,,Not Published,Data Not Available,CA,Data Not Available,US,,,(818) 601-8340,Calibangersla@gmail.Com,C11-0001985-LIC
CALI GREEN HOUSE,,cali-green-house,other,,,Not Published,Data Not Available,CA,Data Not Available,US,,,(818) 406-1993,G.Mikayelyan2023@gmail.Com,C11-0001987-LIC
Cali-Cann Distribution LLC,Cali-Cann Distribution,cali-cann-distribution-llc,other,,,Not Published,Data Not Available,CA,Data Not Available,US,,,(916) 768-4711,Stu@dekrown.Com,C11-0001204-LIC
CAM,California Artisanal Medicine,cam,other,,,Not Published,Data Not Available,CA,Data Not Available,US,,,(720) 505-6212,Acozy88@gmail.Com,C11-0000225-LIC
CAM,California Artisanal Medicine,cam,other,,,Not Published,Data Not Available,CA,Data Not Available,US,,,(720) 505-6212,Verdure94@gmail.Com,C11-0002064-LIC
"CALIFORNIA CHROMATOGRAPHY, LLC",,california-chromatography-llc,other,,,Not Published,Data Not Available,CA,Data Not Available,US,,,(310) 850-5479,Franconoval@gmail.Com,C11-0001704-LIC
Traditional,"California Organic Treatment Center, Inc.",traditional,other,,,Not Published,Data Not Available,CA,Data Not Available,US,,,(210) 885-0517,Cotccultivation@outlook.Com,C11-0000883-LIC
CALIFORNIA ORGANICS LLC,,california-organics-llc,other,,,Not Published,Data Not Available,CA,Data Not Available,US,,,(949) 892-8639,Jordanginger89@gmail.Com,C11-0001378-LIC
CALIFORNIA PARADISE,,california-paradise,other,,,Not Published,Data Not Available,CA,Data Not Available,US,,,(707) 407-7312,Blakenaharin@gmail.Com,C11-0000945-LIC
CALIFORNIA SAFE ACCESS LLC,,california-safe-access-llc,other,,,Not Published,Data Not Available,CA,Data Not Available,US,,,(916) 298-9260,Californiasafeaccess@gmail.Com,C11-0000208-LIC
Coast to Coast Collective,California's Finest Coast To Coast Inc.,coast-to-coast-collective,other,,,Not Published,Data Not Available,CA,Data Not Available,US,,,(818) 712-0535,Corey@3cfarms.Com,C11-0000923-LIC
CALIGROWS,,caligrows,other,,,Not Published,Data Not Available,CA,Data Not Available,US,,,(916) 580-9981,Sean@graphia.Com,C11-0001958-LIC
Rosin Tech Labs,Calmeds Farmers Union,rosin-tech-labs,other,,,Not Published,Data Not Available,CA,Data Not Available,US,,,(908) 947-8590,Sam@shocompanies.Com,C11-0001694-LIC
CALVISTA,,calvista,other,,,Not Published,Data Not Available,CA,Data Not Available,US,,,(925) 382-6298,Home4u4life@gmail.Com,C11-0001251-LIC
Camanche Farms,Camanche Farms Inc,camanche-farms,other,,,Not Published,Data Not Available,CA,Data Not Available,US,,,(209) 366-8921,Jason@bom.Farm,C11-0002019-LIC
Cana Roots,,cana-roots,other,,,Not Published,Data Not Available,CA,Data Not Available,US,,,(818) 624-5210,Tony.Kovaian.165@my.Csun.Edu,C11-0000829-LIC
Data Not Available,"Canna America, LLC",data-not-available,other,,,Not Published,Data Not Available,CA,Data Not Available,US,,,(562) 217-7105,Cannaamericadistro@gmail.Com,C11-0001193-LIC
Canna Culture,Canna Culture Corporation,canna-culture,other,,,Not Published,Data Not Available,CA,Data Not Available,US,,,(408) 264-7877,Redelarosa@yahoo.Com,C11-0000479-LIC
Cloud 8th DTLA,"Canna Healthcare, Inc.",cloud-8th-dtla,other,,,Not Published,Data Not Available,CA,Data Not Available,US,,,(213) 808-2725,Cannahealthcare@cloud8thdtla.Co,C11-0000928-LIC
Canna King Farms,,canna-king-farms,other,,,Not Published,Data Not Available,CA,Data Not Available,US,,,(209) 629-7285,Info@premiumgenetix.Com,C11-0002052-LIC
CANNABIS PLUS LLC,,cannabis-plus-llc,other,,,Not Published,Data Not Available,CA,Data Not Available,US,,,(415) 874-8038,Team@cannabisplus.Us,C11-0001361-LIC
CannaCruz,"Cannacruz, Inc.",cannacruz,other,,,Not Published,Data Not Available,CA,Data Not Available,US,,,(831) 206-7569,Cruz89@aol.Com,C11-0000736-LIC
CANNAFUSIONS,,cannafusions,other,,,Not Published,Data Not Available,CA,Data Not Available,US,,,(818) 943-1150,Cannabiscoinc@gmail.Com,C11-0000315-LIC
CannaMills LLC,,cannamills-llc,other,,,Not Published,Data Not Available,CA,Data Not Available,US,,,(707) 298-5329,Hyperiondistroca@gmail.Com,C11-0002012-LIC
Cannavision Labs,"Cannavision Laboratories, LLC",cannavision-labs,other,,,Not Published,Data Not Available,CA,Data Not Available,US,,,(714) 398-9141,Glenda@cannavisionlaboratories.Com,C11-0001506-LIC
Bloom Brands,Capna Inc,bloom-brands,other,,,Not Published,Data Not Available,CA,Data Not Available,US,,,(818) 533-6254,Info@capnalabs.Com,C11-0000086-LIC
Data Not Available,"Carden Labs, Inc.",data-not-available,other,,,Not Published,Data Not Available,CA,Data Not Available,US,,,(562) 332-0290,Heather@thepuffweiser.Com,C11-0001473-LIC
Carp Red Barn,"Carp Red Barn, Inc.",carp-red-barn,other,,,Not Published,Data Not Available,CA,Data Not Available,US,,,(805) 510-1060,Compliance@pacificdutchgroup.Com,C11-0001912-LIC
Qubie,Casbiann Corp,qubie,other,,,Not Published,Data Not Available,CA,Data Not Available,US,,,(619) 606-4408,Krzycanuck@live.Com,C11-0001746-LIC
Catalyst Distro 2,Catalyst - Distro LLC,catalyst-distro-2,other,,,Not Published,Data Not Available,CA,Data Not Available,US,,,(562) 370-3780,Elliotlewis6700@catalystcannabis.Co,C11-0001854-LIC
Catalyst - OC Distro,Catalyst - Fountain Valley LLC,catalyst---oc-distro,other,,,Not Published,Data Not Available,CA,Data Not Available,US,,,(562) 754-7827,Elliotlewis6700@catalystcannabis.Co,C11-0002070-LIC
CATALYST - HAWTHORNE DISTRO,Catalyst - Hawthorne LLC,catalyst---hawthorne-distro,other,,,Not Published,Data Not Available,CA,Data Not Available,US,,,(562) 370-3780,Elliotlewis6700@catalystcannabis.Co,C11-0001915-LIC
"Category 5 Farms, Inc",,category-5-farms-inc,other,,,Not Published,Data Not Available,CA,Data Not Available,US,,,(305) 458-2819,Ralphcalderon54@gmail.Com,C11-0001528-LIC
Cathedral City Releaf,,cathedral-city-releaf,other,,,Not Published,Data Not Available,CA,Data Not Available,US,,,(512) 506-0590,Surenalin@yahoo.Com,C11-0002000-LIC
Cathedral Knight LLC,,cathedral-knight-llc,other,,,Not Published,Data Not Available,CA,Data Not Available,US,,,(818) 400-5501,Cathedralknight4@gmail.Com,C11-0001950-LIC
CCSAL LLC,,ccsal-llc,other,,,Not Published,Data Not Available,CA,Data Not Available,US,,,(831) 420-3227,Cruz89@aol.Com,C11-0001945-LIC
CDP Fabricators,"Cdp Fabricators, Inc.",cdp-fabricators,other,,,Not Published,Data Not Available,CA,Data Not Available,US,,,(916) 517-6291,Coxenterprises2021@gmail.Com,C11-0001600-LIC
Curated Cannabis,"Cea Services, LLC",curated-cannabis,other,,,Not Published,Data Not Available,CA,Data Not Available,US,,,(917) 715-0469,Will.Sun@curated-Cannabis.Com,C11-0000030-LIC
CENTER STREET INVESTMENTS INC,,center-street-investments-inc,other,,,Not Published,Data Not Available,CA,Data Not Available,US,,,(619) 279-0164,Robzaitona@yahoo.Com,C11-0001990-LIC
"Central Coast AG Disribution, LLC","Central Coast Ag Distribution, LLC",central-coast-ag-disribution-llc,other,,,Not Published,Data Not Available,CA,Data Not Available,US,,,(805) 686-8351,Thomasowner@ccagriculture.Com,C11-0001495-LIC
Data Not Available,"Central Coast Ag Distribution, LLC",data-not-available,other,,,Not Published,Data Not Available,CA,Data Not Available,US,,,(805) 694-8594,Compliance@ccagriculture.Com,C11-0001906-LIC
"Central Coast AG Farming, LLC",,central-coast-ag-farming-llc,other,,,Not Published,Data Not Available,CA,Data Not Available,US,,,(805) 694-8594,Thomasowner@ccagriculture.Com,C11-0001512-LIC
Central Coast Processing LLC,,central-coast-processing-llc,other,,,Not Published,Data Not Available,CA,Data Not Available,US,,,(805) 705-5418,Chrisbellamy@mac.Com,C11-0001870-LIC
CENTRAL TREE COLLECTIVE INC,,central-tree-collective-inc,other,,,Not Published,Data Not Available,CA,Data Not Available,US,,,(909) 683-7377,Centraltreecollectiveinc@gmail.Com,C11-0002028-LIC
Santa Cruz Veterans Alliance,"Charlie Mike, Inc.",santa-cruz-veterans-alliance,other,,,Not Published,Data Not Available,CA,Data Not Available,US,,,(831) 431-6347,Scveteransalliance@gmail.Com,C11-0000038-LIC
CHLOROPLANT INC.,,chloroplant-inc,other,,,Not Published,Data Not Available,CA,Data Not Available,US,,,(626) 298-9878,Corporate@chloroplant.Com,C11-0001901-LIC
Claybourne Distribution,Ci Distribution LLC,claybourne-distribution,other,,,Not Published,Data Not Available,CA,Data Not Available,US,,,(951) 675-4508,Nick@claybourneco.Com,C11-0000032-LIC
CI Distribution LLC,,ci-distribution-llc,other,,,Not Published,Data Not Available,CA,Data Not Available,US,,,(951) 475-4508,Nick@claybourneco.Com,C11-0001539-LIC
Data Not Available,Circle Of Hope Alliance,data-not-available,other,,,Not Published,Data Not Available,CA,Data Not Available,US,,,(818) 359-4225,Management@circleofhopela.Com,C11-0000197-LIC
"CITY COMPASSIONATE CAREGIVERS, INC.",,city-compassionate-caregivers-inc,other,,,Not Published,Data Not Available,CA,Data Not Available,US,,,(909) 936-2236,Citycompassionate@gmail.Com,C11-0000661-LIC
The Cure Company,"City Compassionate Caregivers, Inc.",cure-company,other,,,Not Published,Data Not Available,CA,Data Not Available,US,,,(213) 908-4472,Stauntoncure@gmail.Com,C11-0001936-LIC
CK Distribution,,ck-distribution,other,,,Not Published,Data Not Available,CA,Data Not Available,US,,,(805) 441-5014,Licensing@mwgholdings.Com,C11-0000276-LIC
"CLCA-2-091218, LLC",,clca-2-091218-llc,other,,,Not Published,Data Not Available,CA,Data Not Available,US,,,(909) 727-6876,Andrew.Hernandez@workforceenterprises.Net,C11-0001663-LIC
"CLCA-3-091218, LLC",,clca-3-091218-llc,other,,,Not Published,Data Not Available,CA,Data Not Available,US,,,(909) 718-8915,Andy.Hernandez@workforceenterprises.Net,C11-0001595-LIC
TBD,Clean And Clear LLC,tbd,other,,,Not Published,Data Not Available,CA,Data Not Available,US,,,(215) 582-7666,Licensing@shrynegroup.Com,C11-0001432-LIC
Cleanline Management Inc.,,cleanline-management-inc,other,,,Not Published,Data Not Available,CA,Data Not Available,US,,,(209) 283-9510,Jessica@cleanlinemanagement.Com,C11-0001795-LIC
"Clearlake Ventures, LLC.",,clearlake-ventures-llc,other,,,Not Published,Data Not Available,CA,Data Not Available,US,,,(707) 350-5052,Info@backroadsdistribution.Com,C11-0001278-LIC
"Clearview Management Solutions, LLC",,clearview-management-solutions-llc,other,,,Not Published,Data Not Available,CA,Data Not Available,US,,,(202) 288-6575,Ben@gardenhousebrands.Com,C11-0000187-LIC
"Clone Goddess, Inc.",,clone-goddess-inc,other,,,Not Published,Data Not Available,CA,Data Not Available,US,,,(800) 420-5221,Gina@clonegoddess.Com,C11-0000054-LIC
CANNABIS LOGISTICAL SOLUTIONS,Cls Holdings LLC,cannabis-logistical-solutions,other,,,Not Published,Data Not Available,CA,Data Not Available,US,,,(949) 880-6204,Talaclsops@gmail.Com,C11-0001339-LIC
"CMS SERVICE PARTNERS, INC.",,cms-service-partners-inc,other,,,Not Published,Data Not Available,CA,Data Not Available,US,,,(415) 819-8006,Office@delabocannabis.Com,C11-0001092-LIC
"CMX DISTRIBUTION, INC.",,cmx-distribution-inc,other,,,Not Published,Data Not Available,CA,Data Not Available,US,,,(949) 434-2125,Robert@420central.Org,C11-0000227-LIC
Data Not Available,Cnsc Farms LLC,data-not-available,other,,,Not Published,Data Not Available,CA,Data Not Available,US,,,(661) 666-0408,Thesupplyhouse@outlook.Com,C11-0000780-LIC
Data Not Available,Coachella Distribution Co.,data-not-available,other,,,Not Published,Data Not Available,CA,Data Not Available,US,,,(424) 332-2645,Kyearthwind@gmail.Com,C11-0000277-LIC
COACHELLA HERB PLANTATION,,coachella-herb-plantation,other,,,Not Published,Data Not Available,CA,Data Not Available,US,,,(800) 964-5699,Coachellaplantation@gmail.Com,C11-0001035-LIC
"COACHELLA LABS, LLC",,coachella-labs-llc,other,,,Not Published,Data Not Available,CA,Data Not Available,US,,,(818) 585-2999,Joseph@golddropco.Com,C11-0001206-LIC
"COMMERCE C1, LLC",,commerce-c1-llc,other,,,Not Published,Data Not Available,CA,Data Not Available,US,,,(310) 729-8381,Ja.Lag@losalamosgardens.Com,C11-0000068-LIC
Commerce Distribution,Commerce Distribution Inc,commerce-distribution,other,,,Not Published,Data Not Available,CA,Data Not Available,US,,,(213) 267-5016,Amyram600@gmail.Com,C11-0001461-LIC
Common Minds Farms,,common-minds-farms,other,,,Not Published,Data Not Available,CA,Data Not Available,US,,,(209) 552-5373,Nick.Mctague@gmail.Com,C11-0001564-LIC
COMMUNITY CREATIVE NETWORK,,community-creative-network,other,,,Not Published,Data Not Available,CA,Data Not Available,US,,,(818) 430-7355,Jpegmagic@yahoo.Com,C11-0000378-LIC
COMPASSIONATE HEART MUTUAL BENEFIT ASSOCIATION,,compassionate-heart-mutual-benefit-association,other,,,Not Published,Data Not Available,CA,Data Not Available,US,,,(707) 367-2964,Compassionateheart08@gmail.Com,C11-0000415-LIC
CPR,"Compassionate Patient Resources, Inc.",cpr,other,,,Not Published,Data Not Available,CA,Data Not Available,US,,,(818) 996-4277,Cprcollective@gmail.Com,C11-0000112-LIC
Data Not Available,"Concentrated Services, LLC",data-not-available,other,,,Not Published,Data Not Available,CA,Data Not Available,US,,,(323) 667-7467,Maxfromca@gmail.Com,C11-0000321-LIC
Connected Merced LLC,,connected-merced-llc,other,,,Not Published,Data Not Available,CA,Data Not Available,US,,,(707) 720-3793,Caleb.Regulatory@connectedca.Com,C11-0002068-LIC
"CORE CITY GROUP, INC.",,core-city-group-inc,other,,,Not Published,Data Not Available,CA,Data Not Available,US,,,(818) 746-8066,Perazzo@corecitygroup.Com,C11-0001687-LIC
"Cosmic Edibles, LLC",,cosmic-edibles-llc,other,,,Not Published,Data Not Available,CA,Data Not Available,US,,,(626) 757-5869,Jai.Tommy@gmail.Com,C11-0000116-LIC
CPTD Distribution,,cptd-distribution,other,,,Not Published,Data Not Available,CA,Data Not Available,US,,,(916) 886-4806,CptdLLC@gmail.Com,C11-0001590-LIC
The Grand Distro,Crafted Canopy Co. LLC,grand-distro,other,,,Not Published,Data Not Available,CA,Data Not Available,US,,,(562) 554-6770,Admin@verdemgnt.Com,C11-0000511-LIC
"CRC Manufacturing, LLC",,crc-manufacturing-llc,other,,,Not Published,Data Not Available,CA,Data Not Available,US,,,(213) 249-6700,5235valley@gmail.Com,C11-0002017-LIC
Data Not Available,Creme De Canna Collective,data-not-available,other,,,Not Published,Data Not Available,CA,Data Not Available,US,,,(213) 926-3931,Cannaponics@gmail.Com,C11-0000629-LIC
DELACREME,Creme Tech Ca LLC,delacreme,other,,,Not Published,Data Not Available,CA,Data Not Available,US,,,(909) 240-8322,Trizmmanagement@gmail.Com,C11-0001289-LIC
"Crown Genetics, LLC",,crown-genetics-llc,other,,,Not Published,Data Not Available,CA,Data Not Available,US,,,(818) 849-6977,Support@crownog.Com,C11-0000265-LIC
"CS HERITAGE INDUSTRY, INC.",,cs-heritage-industry-inc,other,,,Not Published,Data Not Available,CA,Data Not Available,US,,,(310) 502-1124,Giovanti@lvlup.La,C11-0000589-LIC
Data Not Available,"Cspa Group, Inc.",data-not-available,other,,,Not Published,Data Not Available,CA,Data Not Available,US,,,(646) 591-6300,Kelly_Christopherson@hotmail.Com,C11-0000259-LIC
CUPER DEVELOPMENT,"Cuper Development, LLC",cuper-development,other,,,Not Published,Data Not Available,CA,Data Not Available,US,,,(323) 703-9085,Kfouryphil@gmail.Com,C11-0001812-LIC
CURE PRODUCTIONS SATICOY,,cure-productions-saticoy,other,,,Not Published,Data Not Available,CA,Data Not Available,US,,,(213) 798-5599,Dinosogoyan@gmail.Com,C11-0000463-LIC
Curia Society Inc,,curia-society-inc,other,,,Not Published,Data Not Available,CA,Data Not Available,US,,,(661) 478-2767,Californiazriimin@gmail.Com,C11-0000938-LIC
"CV Distro, Inc.",,cv-distro-inc,other,,,Not Published,Data Not Available,CA,Data Not Available,US,,,(209) 872-1061,Bal.Shan32@gmail.Com,C11-0001957-LIC
CWG BOTANICALS INC.,,cwg-botanicals-inc,other,,,Not Published,Data Not Available,CA,Data Not Available,US,,,(954) 336-9021,Crawford@ccgiconsulting.Com,C11-0000434-LIC
Cypress Manufacturing Company,,cypress-manufacturing-company,other,,,Not Published,Data Not Available,CA,Data Not Available,US,,,(831) 998-8214,Mark@lowellfarms.Com,C11-0000816-LIC
Daema Distribution,Daema Distribution LLC,daema-distribution,other,,,Not Published,Data Not Available,CA,Data Not Available,US,,,(424) 283-1843,Daema2023@gmail.Com,C11-0002023-LIC
Dalar Business Solution LLC,,dalar-business-solution-llc,other,,,Not Published,Data Not Available,CA,Data Not Available,US,,,(818) 913-6261,Arman@exhalence.La,C11-0001929-LIC
FROST,"Dankory, LLC",frost,other,,,Not Published,Data Not Available,CA,Data Not Available,US,,,(323) 833-3047,Mesropyanavetik7@gmail.Com,C11-0001783-LIC
Dixon Distro,Davisville Business Enterprises Inc,dixon-distro,other,,,Not Published,Data Not Available,CA,Data Not Available,US,,,(530) 574-3147,Rob@420fstreet.Com,C11-0001335-LIC
ThinC Distribution,"Dbm Industries, LLC",thinc-distribution,other,,,Not Published,Data Not Available,CA,Data Not Available,US,,,(619) 666-3534,Mccradylicensing@gmail.Com,C11-0001297-LIC
DCEden,Dc Eden,dceden,other,,,Not Published,Data Not Available,CA,Data Not Available,US,,,(916) 719-9089,Mrbullys@aol.Com,C11-0001992-LIC
"DECOI, INC",,decoi-inc,other,,,Not Published,Data Not Available,CA,Data Not Available,US,,,(206) 566-9833,Homebuilderdennis@gmail.Com,C11-0001844-LIC
DELC LLC,,delc-llc,other,,,Not Published,Data Not Available,CA,Data Not Available,US,,,(530) 798-9708,Greendawgcollective@gmail.Com,C11-0002063-LIC
Smoakland,Delivermd,smoakland,other,,,Not Published,Data Not Available,CA,Data Not Available,US,,,(510) 499-2444,Jay@smoakland.Com,C11-0000216-LIC
Delta Distribution,Delta Distribution Inc.,delta-distribution,other,,,Not Published,Data Not Available,CA,Data Not Available,US,,,(925) 382-8373,Dustin@therichardscompany.Net,C11-0001830-LIC
High Rollers Cannabis Co.,"Desert Care Connection, LLC",high-rollers-cannabis-co,other,,,Not Published,Data Not Available,CA,Data Not Available,US,,,(760) 606-0606,Info@high-Rollers.Com,C11-0001295-LIC
"Desert Cultivation OpCo JV, LLC",,desert-cultivation-opco-jv-llc,other,,,Not Published,Data Not Available,CA,Data Not Available,US,,,(714) 888-7666,Duongnicholas71@gmail.Com,C11-0002044-LIC
DESERT GREEN GARDENS GROUP LLC,,desert-green-gardens-group-llc,other,,,Not Published,Data Not Available,CA,Data Not Available,US,,,(951) 236-6958,Bigdhs@jacksonrivero.Com,C11-0000291-LIC
Wunderland,"Desert Oasis Group, Inc.",wunderland,other,,,Not Published,Data Not Available,CA,Data Not Available,US,,,(925) 260-1936,Giovanti@lvlup.La,C11-0000839-LIC
Data Not Available,Distribution Haus LLC,data-not-available,other,,,Not Published,Data Not Available,CA,Data Not Available,US,,,(714) 264-4153,Natalie@eleets3pl.Com,C11-0001633-LIC
Catalyst Wholesale,Distro A LLC,catalyst-wholesale,other,,,Not Published,Data Not Available,CA,Data Not Available,US,,,(562) 370-3780,Elliotlewis6700@catalystcannabis.Co,C11-0001909-LIC
"Distro Depot, Inc.",,distro-depot-inc,other,,,Not Published,Data Not Available,CA,Data Not Available,US,,,(760) 212-8628,Kevin@sdstrains.Com,C11-0002033-LIC
Bagel Boyz,"Dks Holdings, Inc.",bagel-boyz,other,,,Not Published,Data Not Available,CA,Data Not Available,US,,,(310) 936-6239,Dksholdingsinc@gmail.Com,C11-0002065-LIC
DOG HOUSE INDUSTRIES,Dog House Industries Inc.,dog-house-industries,other,,,Not Published,Data Not Available,CA,Data Not Available,US,,,(310) 384-4679,Doghouseindustriez@gmail.Com,C11-0001993-LIC
Donnelly Extracts,"Donnelly & Co., A Mutual Benefit Corporation",donnelly-extracts,other,,,Not Published,Data Not Available,CA,Data Not Available,US,,,(707) 234-4644,Stephanie@donnellygardens.Org,C11-0000138-LIC
Downtowne Inc.,,downtowne-inc,other,,,Not Published,Data Not Available,CA,Data Not Available,US,,,(508) 280-1053,Oleg@primetimecap.Com,C11-0001592-LIC
Dream Group,Dream Group Inc,dream-group,other,,,Not Published,Data Not Available,CA,Data Not Available,US,,,(818) 259-3333,Dreamgroupinc01@gmail.Com,C11-0002047-LIC
DROPS,"Drops Cali, LLC",drops,other,,,Not Published,Data Not Available,CA,Data Not Available,US,,,(503) 545-8739,Compliance@dropscandies.Com,C11-0001745-LIC
"DT CALIFORNIA, LLC",,dt-california-llc,other,,,Not Published,Data Not Available,CA,Data Not Available,US,,,(630) 667-8791,Dave@upnorthhumboldt.Com,C11-0001942-LIC
Data Not Available,"Dtpg Collective, Inc.",data-not-available,other,,,Not Published,Data Not Available,CA,Data Not Available,US,,,(323) 602-4211,Dtpgcollective@gmail.Com,C11-0000659-LIC
"DUB BROTHERS - 2507 MAIN STREET, LLC",,dub-brothers---2507-main-street-llc,other,,,Not Published,Data Not Available,CA,Data Not Available,US,,,(310) 990-8779,Paula@dubbros.Com,C11-0001618-LIC
"DUB BROTHERS MANAGEMENT, LLC",,dub-brothers-management-llc,other,,,Not Published,Data Not Available,CA,Data Not Available,US,,,(323) 645-7669,Dubbrothersla@gmail.Com,C11-0000686-LIC
Data Not Available,"Dy Weed, LLC",data-not-available,other,,,Not Published,Data Not Available,CA,Data Not Available,US,,,(310) 948-1700,Merabi7862@yahoo.Com,C11-0001154-LIC
Dyer Management Center LLC,,dyer-management-center-llc,other,,,Not Published,Data Not Available,CA,Data Not Available,US,,,(949) 331-3737,DyermanagementcenterLLC@gmail.Com,C11-0001463-LIC
LYFE SAUCE,"Dyvinel, Inc.",lyfe-sauce,other,,,Not Published,Data Not Available,CA,Data Not Available,US,,,(818) 602-1566,Ellearubinstein@gmail.Com,C11-0000498-LIC
"E-FARMS, LLC",,e-farms-llc,other,,,Not Published,Data Not Available,CA,Data Not Available,US,,,(661) 537-3746,Mikevicky1@hotmail.Com,C11-0001195-LIC
Cali Boyz,Earth Blend Inc,cali-boyz,other,,,Not Published,Data Not Available,CA,Data Not Available,US,,,(323) 348-9439,Earthblendcorp@gmail.Com,C11-0000704-LIC
"Earth Essentials, LLC",,earth-essentials-llc,other,,,Not Published,Data Not Available,CA,Data Not Available,US,,,(760) 610-5752,Keyva@rh-Mj.Com,C11-0001963-LIC
Distro 40,East Meets West Group LLC,distro-40,other,,,Not Published,Data Not Available,CA,Data Not Available,US,,,(916) 446-1974,Office.Eastmeetswest@gmail.Com,C11-0001756-LIC
Echsen Industries,"Echsen Industries, LLC",echsen-industries,other,,,Not Published,Data Not Available,CA,Data Not Available,US,,,(727) 639-8670,Echsenindustries@gmail.Com,C11-0000436-LIC
EDELWEISS ENTERPRISES LLC,,edelweiss-enterprises-llc,other,,,Not Published,Data Not Available,CA,Data Not Available,US,,,(248) 767-5869,Jims@edelweissfarming.Com,C11-0001920-LIC
Data Not Available,"Eden Infusions, LLC",data-not-available,other,,,Not Published,Data Not Available,CA,Data Not Available,US,,,(510) 200-4855,Goehayward@gmail.Com,C11-0000289-LIC
Elefante Inc,,elefante-inc,other,,,Not Published,Data Not Available,CA,Data Not Available,US,,,(832) 969-8191,Hello@elefanteinc.Com,C11-0000519-LIC
Element 7 Firebaugh LLC,,element-7-firebaugh-llc,other,,,Not Published,Data Not Available,CA,Data Not Available,US,,,(559) 296-5112,Robert@e7ca.Com,C11-0001522-LIC
Elevation Distro.,Elevation Distro LLC,elevation-distro,other,,,Not Published,Data Not Available,CA,Data Not Available,US,,,(530) 264-7673,Hello@elevationdistro.Com,C11-0001164-LIC
Elsa Enterprises Inc.,,elsa-enterprises-inc,other,,,Not Published,Data Not Available,CA,Data Not Available,US,,,(818) 644-1545,Elsaenterprises@yahoo.Com,C11-0000457-LIC
Embarcadero Trading Co.,,embarcadero-trading-co,other,,,Not Published,Data Not Available,CA,Data Not Available,US,,,(707) 291-0469,Aaronbrowe@gmail.Com,C11-0001530-LIC
Emerald Bay Extracts,Emerald Bay Wellness,emerald-bay-extracts,other,,,Not Published,Data Not Available,CA,Data Not Available,US,,,(530) 414-9624,Thomas@emeraldbayextracts.Com,C11-0000655-LIC
Emerald City Organics Inc.,,emerald-city-organics-inc,other,,,Not Published,Data Not Available,CA,Data Not Available,US,,,(818) 738-8960,Thchealing@att.Net,C11-0000520-LIC
Data Not Available,"Emerald Group, LLC",data-not-available,other,,,Not Published,Data Not Available,CA,Data Not Available,US,,,(707) 362-0156,Admin@lostcoaste.Com,C11-0001198-LIC
818 BRANDS,"Emerald Springs, LLC",818-brands,other,,,Not Published,Data Not Available,CA,Data Not Available,US,,,(949) 697-9420,Travis@emeraldspringsdispensary.Com,C11-0001406-LIC
Cannamsterdam,Emmi World Management LLC,cannamsterdam,other,,,Not Published,Data Not Available,CA,Data Not Available,US,,,(718) 688-4119,Info@cannamsterdam.Com,C11-0000469-LIC
Emerald Sky,Emsky LLC,emerald-sky,other,,,Not Published,Data Not Available,CA,Data Not Available,US,,,(510) 333-6747,Andyskov@yahoo.Com,C11-0001934-LIC
Enapsema Inc,Enapsema Inc.,enapsema-inc,other,,,Not Published,Data Not Available,CA,Data Not Available,US,,,(310) 956-9894,Gusmak323@gmail.Com,C11-0001835-LIC
Encinal Operations Inc,,encinal-operations-inc,other,,,Not Published,Data Not Available,CA,Data Not Available,US,,,(248) 705-0988,Encinalops@gmail.Com,C11-0001938-LIC
Vallejo Relief Center,"Enhanced Energies, Inc.",vallejo-relief-center,other,,,Not Published,Data Not Available,CA,Data Not Available,US,,,(707) 651-9988,Vallejoreliefcenter@gmail.Com,C11-0001480-LIC
SPACESTATION DISTRO,"Epic Pros Enterprises, Inc.",spacestation-distro,other,,,Not Published,Data Not Available,CA,Data Not Available,US,,,(310) 743-4598,Rob@mammoth.Org,C11-0001185-LIC
ESG CONSULTING LLC,,esg-consulting-llc,other,,,Not Published,Data Not Available,CA,Data Not Available,US,,,(949) 922-9345,Ryan@trimdepotca.Com,C11-0001620-LIC
ESG CONSULTING LLC,,esg-consulting-llc,other,,,Not Published,Data Not Available,CA,Data Not Available,US,,,(949) 922-3453,Ryan@trimdepotca.Com,C11-0001777-LIC
TRADITIONAL,"Essential Co, LLC",traditional,other,,,Not Published,Data Not Available,CA,Data Not Available,US,,,(310) 431-7116,Licensing@odyssey-Insights.Com,C11-0001336-LIC
Established Farms,,established-farms,other,,,Not Published,Data Not Available,CA,Data Not Available,US,,,(209) 629-7285,Info@premiumgenetix.Com,C11-0002062-LIC
"Euphoric Life, Inc.",,euphoric-life-inc,other,,,Not Published,Data Not Available,CA,Data Not Available,US,,,(408) 316-4062,Info@euphoriclife.Com,C11-0000305-LIC
Flow Kana,"Event Horizon Technologies, Inc.",flow-kana,other,,,Not Published,Data Not Available,CA,Data Not Available,US,,,(707) 841-6023,Drp@flowcannabis.Co,C11-0001065-LIC
Evergreen 810 Distribution Inc,Evergreen 810 Distribution Inc.,evergreen-810-distribution-inc,other,,,Not Published,Data Not Available,CA,Data Not Available,US,,,(510) 557-4110,Austin.Ean.Barber@gmail.Com,C11-0001568-LIC
Data Not Available,"Evergreen Sr Distribution, Inc.",data-not-available,other,,,Not Published,Data Not Available,CA,Data Not Available,US,,,(510) 557-4110,S.Burgess@true-Vision.Co,C11-0001621-LIC
"EXCLUSIVE CAREGIVERS OF CALIFORNIA, INC.",,exclusive-caregivers-of-california-inc,other,,,Not Published,Data Not Available,CA,Data Not Available,US,,,(562) 688-4111,Mariacomacho129@gmail.Com,C11-0001103-LIC
"Hella Dank, #hashtag","Extract Solutions, Inc",hella-dank-hashtag,other,,,Not Published,Data Not Available,CA,Data Not Available,US,,,(224) 628-2313,Sergej@extractsolutionsinc.Com,C11-0001828-LIC
#hashtag,"Extract Solutions, Inc.",hashtag,other,,,Not Published,Data Not Available,CA,Data Not Available,US,,,(224) 628-2313,Sergej@extractsolutionsinc.Com,C11-0002075-LIC
G LION,Fabulous Creations Inc.,g-lion,other,,,Not Published,Data Not Available,CA,Data Not Available,US,,,(310) 936-3416,Barry.Fabulouscreationsinc@gmail.Com,C11-0001952-LIC
"FAITH & FAMILY FARMS, LLC",,faith-family-farms-llc,other,,,Not Published,Data Not Available,CA,Data Not Available,US,,,(818) 636-9736,Steve@cliquecannabisco.Com,C11-0000909-LIC
"Farmacopia, LLC",,farmacopia-llc,other,,,Not Published,Data Not Available,CA,Data Not Available,US,,,(213) 399-7335,Wes@seedjunky.Com,C11-0001484-LIC
Farmlane,,farmlane,other,,,Not Published,Data Not Available,CA,Data Not Available,US,,,(805) 729-8776,David@hembraconsulting.Com,C11-0001884-LIC
"Fenix Logistics, Inc.",,fenix-logistics-inc,other,,,Not Published,Data Not Available,CA,Data Not Available,US,,,(916) 490-9874,Cf@thefenixfamily.Com,C11-0000392-LIC
"FFC Hathaway, LLC",,ffc-hathaway-llc,other,,,Not Published,Data Not Available,CA,Data Not Available,US,,,(626) 549-5474,Calinvested@gmail.Com,C11-0001960-LIC
Fields Group Inc.,,fields-group-inc,other,,,Not Published,Data Not Available,CA,Data Not Available,US,,,(510) 410-1082,Kivastill@gmail.Com,C11-0001698-LIC
Fields Family Farmz,Fields Performance Inc.,fields-family-farmz,other,,,Not Published,Data Not Available,CA,Data Not Available,US,,,(916) 591-1369,Fieldsracing.Com@mac.Com,C11-0000628-LIC
Wizard Trees,"Filifera, LLC",wizard-trees,other,,,Not Published,Data Not Available,CA,Data Not Available,US,,,(213) 281-0006,Info@wizardtrees.Com,C11-0001784-LIC
FINAL TOUCH WELLNESS,,final-touch-wellness,other,,,Not Published,Data Not Available,CA,Data Not Available,US,,,(209) 728-7185,Brydonejack@gmail.Com,C11-0001768-LIC
FLAVOR FARMS GUSTINE,Flavor Farms Gustine LLC,flavor-farms-gustine,other,,,Not Published,Data Not Available,CA,Data Not Available,US,,,(209) 324-3853,Andy.Cannabis@outlook.Com,C11-0001842-LIC
Flavor Fusion Inc.,,flavor-fusion-inc,other,,,Not Published,Data Not Available,CA,Data Not Available,US,,,(360) 521-7531,Ray@rayslemonade.Com,C11-0001769-LIC
"FLOR X, INC.",,flor-x-inc,other,,,Not Published,Data Not Available,CA,Data Not Available,US,,,(831) 753-9999,Licensing@grupoflor.Com,C11-0000401-LIC
Data Not Available,"Floracy, Inc.",data-not-available,other,,,Not Published,Data Not Available,CA,Data Not Available,US,,,(530) 264-7592,Harry@floracy.Com,C11-0000070-LIC
Data Not Available,"Flrish Farms Cultivation 2, LLC",data-not-available,other,,,Not Published,Data Not Available,CA,Data Not Available,US,,,(510) 610-7444,Licensing@statehouse.Co,C11-0000207-LIC
Mammoth Distribution,"Fluids Manufacturing, Inc.",mammoth-distribution,other,,,Not Published,Data Not Available,CA,Data Not Available,US,,,(831) 291-3812,Info@mammoth.Org,C11-0001429-LIC
"Fly Hye Two, LLC",,fly-hye-two-llc,other,,,Not Published,Data Not Available,CA,Data Not Available,US,,,(818) 434-8347,Haro@fly-Hye.Com,C11-0001385-LIC
Focused Health LLC,,focused-health-llc,other,,,Not Published,Data Not Available,CA,Data Not Available,US,,,(978) 237-5748,Focusedhealth@col-Care.Com,C11-0001210-LIC
Data Not Available,Fordoak Operations LLC,data-not-available,other,,,Not Published,Data Not Available,CA,Data Not Available,US,,,(510) 550-5102,Erik@oifunds.Com,C11-0000779-LIC
Foreign Genetics Inc.,,foreign-genetics-inc,other,,,Not Published,Data Not Available,CA,Data Not Available,US,,,(818) 795-5046,Vrarrion@gmail.Com,C11-0000642-LIC
Forever Beauty Style Inc,,forever-beauty-style-inc,other,,,Not Published,Data Not Available,CA,Data Not Available,US,,,(415) 420-5460,9131sanleandro@gmail.Com,C11-0001981-LIC
HIGHATUS,Four Star Distribution And Delivery LLC,highatus,other,,,Not Published,Data Not Available,CA,Data Not Available,US,,,(323) 894-5767,Data Not Available,C11-0000040-LIC
Four Twenty LLC.,Four Twenty LLC,four-twenty-llc,other,,,Not Published,Data Not Available,CA,Data Not Available,US,,,(315) 929-0170,Sakarabarnes@gmail.Com,C11-0001155-LIC
High Grade Distribution,"Fugate Falls, Inc.",high-grade-distribution,other,,,Not Published,Data Not Available,CA,Data Not Available,US,,,(707) 499-6202,Craighgd@gmail.Com,C11-0001959-LIC
Data Not Available,"Full Spectrum Group, Inc.",data-not-available,other,,,Not Published,Data Not Available,CA,Data Not Available,US,,,(818) 425-0516,Rezafullspectrum@gmail.Com,C11-0001379-LIC
"Fusion Farms, LLC",,fusion-farms-llc,other,,,Not Published,Data Not Available,CA,Data Not Available,US,,,(713) 858-7515,Vickik@fusionfarms.Io,C11-0000860-LIC
"GAMA Lancaster, LLC",,gama-lancaster-llc,other,,,Not Published,Data Not Available,CA,Data Not Available,US,,,(818) 631-0678,Anushm@gamacanna.Com,C11-0001553-LIC
GAME OVER DISTRIBUTION LLC,,game-over-distribution-llc,other,,,Not Published,Data Not Available,CA,Data Not Available,US,,,(424) 388-4770,GlasshalffuLLCa@gmail.Com,C11-0001692-LIC
"GARDEN OF WEEDEN, INC.",,garden-of-weeden-inc,other,,,Not Published,Data Not Available,CA,Data Not Available,US,,,(503) 806-1192,Al@curacan.Com,C11-0000340-LIC
FAB Holdings,Gartik Corp.,fab-holdings,other,,,Not Published,Data Not Available,CA,Data Not Available,US,,,(602) 944-1210,Stephen@d9mfg.Com,C11-0000573-LIC
GBH DISTRIBUTORS LLC,,gbh-distributors-llc,other,,,Not Published,Data Not Available,CA,Data Not Available,US,,,(209) 201-2889,Compliance@greenbrierhldgs.Com,C11-0000358-LIC
"GC CA Ventures, LLC",,gc-ca-ventures-llc,other,,,Not Published,Data Not Available,CA,Data Not Available,US,,,(562) 294-6884,Gcc.Longbeach@gmail.Com,C11-0000964-LIC
"GC Global, LLC",,gc-global-llc,other,,,Not Published,Data Not Available,CA,Data Not Available,US,,,(619) 609-8978,Georgesadlerlicense@gmail.Com,C11-0001436-LIC
"GCM Management Services, Inc.",,gcm-management-services-inc,other,,,Not Published,Data Not Available,CA,Data Not Available,US,,,(707) 330-8767,Jayson@lumpysflowers.Com,C11-0001342-LIC
GE 212 CORP,,ge-212-corp,other,,,Not Published,Data Not Available,CA,Data Not Available,US,,,(310) 971-8170,Daniel@gecollective.Com,C11-0001561-LIC
Data Not Available,"Gemstar Research Group, LLC",data-not-available,other,,,Not Published,Data Not Available,CA,Data Not Available,US,,,(323) 868-6369,Gemstarresearchgroup@gmail.Com,C11-0000475-LIC
Data Not Available,"Genex Trading, Inc.",data-not-available,other,,,Not Published,Data Not Available,CA,Data Not Available,US,,,(818) 424-1717,David@genextrading.Com,C11-0000560-LIC
Shelf Life Distributiong,Gf Distribution LLC,shelf-life-distributiong,other,,,Not Published,Data Not Available,CA,Data Not Available,US,,,(949) 252-1908,Greg@goldflora.Com,C11-0001240-LIC
GF Distribution LLC,,gf-distribution-llc,other,,,Not Published,Data Not Available,CA,Data Not Available,US,,,(720) 352-2380,Greg@goldflora.Com,C11-0001268-LIC
Data Not Available,Gf Distribution LLC,data-not-available,other,,,Not Published,Data Not Available,CA,Data Not Available,US,,,(720) 352-2380,Greg@goldflora.Com,C11-0002010-LIC
Data Not Available,Gg Quality Manufacturing,data-not-available,other,,,Not Published,Data Not Available,CA,Data Not Available,US,,,(213) 519-2860,Ggqualitymfg@gmail.Com,C11-0000657-LIC
Gipsol Cannabis,Gipsol LLC,gipsol-cannabis,other,,,Not Published,Data Not Available,CA,Data Not Available,US,,,(657) 900-2590,Eric.Gipson@gipsol.Org,C11-0001896-LIC
GK Management Services LLC.,,gk-management-services-llc,other,,,Not Published,Data Not Available,CA,Data Not Available,US,,,(714) 713-3723,Emailgkmanagement@gmail.Com,C11-0001138-LIC
-,Gold Leaf Distribution LLC,,other,,,Not Published,Data Not Available,CA,Data Not Available,US,,,(928) 358-7308,Glddistro@gmail.Com,C11-0001982-LIC
Data Not Available,"Gold Process, LLC",data-not-available,other,,,Not Published,Data Not Available,CA,Data Not Available,US,,,(949) 973-0246,Dan@thegoldprocess.Com,C11-0000572-LIC
"GOLDEN PURPOSE, INC.",,golden-purpose-inc,other,,,Not Published,Data Not Available,CA,Data Not Available,US,,,(209) 541-5314,Goldenpurpose06@gmail.Com,C11-0001131-LIC
"GOLDEN STATE CANNABIS, INC.",,golden-state-cannabis-inc,other,,,Not Published,Data Not Available,CA,Data Not Available,US,,,(925) 818-0070,Goldenstatecann@gmail.Com,C11-0000133-LIC
GOLDEN STATE LEGENDS MANAGEMENT CORP.,,golden-state-legends-management-corp,other,,,Not Published,Data Not Available,CA,Data Not Available,US,,,(415) 261-8882,Goldenstatelegends2015@gmail.Com,C11-0000477-LIC
GON INC,,gon-inc,other,,,Not Published,Data Not Available,CA,Data Not Available,US,,,(831) 661-6226,Info@gogreenline.Com,C11-0000184-LIC
Data Not Available,Goodness 4 Life,data-not-available,other,,,Not Published,Data Not Available,CA,Data Not Available,US,,,(831) 818-1615,Goodness4lifeinc@gmail.Com,C11-0000176-LIC
High Note LA,"Green Aid Recovery Group, Inc.",high-note-la,other,,,Not Published,Data Not Available,CA,Data Not Available,US,,,(213) 465-1646,Info@thehighnote.Com,C11-0000487-LIC
Green Birds LLC,,green-birds-llc,other,,,Not Published,Data Not Available,CA,Data Not Available,US,,,(818) 441-4877,Gregory@greenbirdsLLC.Com,C11-0001878-LIC
GREEN CALIFORNIAN CAPITAL,Green Californian Capital Inc,green-californian-capital,other,,,Not Published,Data Not Available,CA,Data Not Available,US,,,(626) 379-7986,Hankyi@yahoo.Com,C11-0002008-LIC
"Green Crown, LLC",,green-crown-llc,other,,,Not Published,Data Not Available,CA,Data Not Available,US,,,(925) 324-0285,Thorshrek1@gmail.Com,C11-0001565-LIC
Cana Harbor,Green Earth Pharmacy Inc.,cana-harbor,other,,,Not Published,Data Not Available,CA,Data Not Available,US,,,(310) 299-4444,Alexeliasian89@yahoo.Com,C11-0000758-LIC
Green Global Distributions Inc.,,green-global-distributions-inc,other,,,Not Published,Data Not Available,CA,Data Not Available,US,,,(914) 799-1857,Ingbers@hotmail.Com,C11-0001281-LIC
"Green Habitat, LLC",,green-habitat-llc,other,,,Not Published,Data Not Available,CA,Data Not Available,US,,,(818) 852-3697,Adam.Karmeli@gmail.Com,C11-0000147-LIC
"Green Heaven, LLC",,green-heaven-llc,other,,,Not Published,Data Not Available,CA,Data Not Available,US,,,(530) 351-4364,Susan@sbarealtors.Com,C11-0000895-LIC
"GREEN KISS FARMS, LLC",,green-kiss-farms-llc,other,,,Not Published,Data Not Available,CA,Data Not Available,US,,,(323) 394-0445,Yerevan000@gmail.Com,C11-0000206-LIC
Green Life Cali LLC,,green-life-cali-llc,other,,,Not Published,Data Not Available,CA,Data Not Available,US,,,(310) 912-2960,Greenlifecalilicensing@gmail.Com,C11-0001585-LIC
Green Med Group,"Green Med Group, Inc.",green-med-group,other,,,Not Published,Data Not Available,CA,Data Not Available,US,,,(714) 951-1893,4rickj@gmail.Com,C11-0001808-LIC
Green Ox,"Green Ox, Inc.",green-ox,other,,,Not Published,Data Not Available,CA,Data Not Available,US,,,(707) 723-7825,Kyle@greenoxinc.Com,C11-0001046-LIC
bewilder,"Green Pasture Technologies, Inc.",bewilder,other,,,Not Published,Data Not Available,CA,Data Not Available,US,,,(213) 986-6568,Suren@avunjian.Com,C11-0001356-LIC
"Green Rush Alliances, LLC",,green-rush-alliances-llc,other,,,Not Published,Data Not Available,CA,Data Not Available,US,,,(805) 452-8083,Dianastarrlangley@gmail.Com,C11-0001150-LIC
"Green Spectrum Group, LLC",,green-spectrum-group-llc,other,,,Not Published,Data Not Available,CA,Data Not Available,US,,,(818) 266-2306,M.Mirolla@greenspectrumgroup.Com,C11-0000318-LIC
Data Not Available,"Green Spectrum Trading, Inc.",data-not-available,other,,,Not Published,Data Not Available,CA,Data Not Available,US,,,(818) 266-2306,Mikemirolla@gmail.Com,C11-0000760-LIC
GREEN VIBE INC.,,green-vibe-inc,other,,,Not Published,Data Not Available,CA,Data Not Available,US,,,(805) 712-3103,Chris@greenvibeindustries.Com,C11-0001913-LIC
"Green Vision Group, Inc.",,green-vision-group-inc,other,,,Not Published,Data Not Available,CA,Data Not Available,US,,,(818) 900-3060,Greenvisioninc30@gmail.Com,C11-0001645-LIC
Green Wave Inc.,,green-wave-inc,other,,,Not Published,Data Not Available,CA,Data Not Available,US,,,(916) 262-6718,Tyler@lafleurgroup.Com,C11-0000598-LIC
"Green Wing Investments, Inc.",,green-wing-investments-inc,other,,,Not Published,Data Not Available,CA,Data Not Available,US,,,(626) 825-7012,Jian_Li2011@hotmail.Com,C11-0001654-LIC
"GREENE BROTHERS FARM, Inc.",,greene-brothers-farm-inc,other,,,Not Published,Data Not Available,CA,Data Not Available,US,,,(925) 989-9636,Mjjohnson200@aol.Com,C11-0001876-LIC
"Greeneyes Farms, Inc.",Greeneyes Farms,greeneyes-farms-inc,other,,,Not Published,Data Not Available,CA,Data Not Available,US,,,(310) 343-5721,Bmcdrywall@yahoo.Com,C11-0000233-LIC
Greenfellas LLC,,greenfellas-llc,other,,,Not Published,Data Not Available,CA,Data Not Available,US,,,(714) 332-9481,Tienvian09@gmail.Com,C11-0001923-LIC
"GREENFELLAS, INC","Greenfellas, Inc.",greenfellas-inc,other,,,Not Published,Data Not Available,CA,Data Not Available,US,,,(714) 470-4265,Ian@ca-Rx.Com,C11-0001637-LIC
Greenfield Distribution Inc,,greenfield-distribution-inc,other,,,Not Published,Data Not Available,CA,Data Not Available,US,,,(510) 599-2934,Licensing@nug.Com,C11-0001347-LIC
Loudpack,Greenfield Organix,loudpack,other,,,Not Published,Data Not Available,CA,Data Not Available,US,,,(510) 610-7444,Licensing@statehouse.Co,C11-0000939-LIC
GREENFIELD ORGANIX 4TH ST,,greenfield-organix-4th-st,other,,,Not Published,Data Not Available,CA,Data Not Available,US,,,(415) 666-6188,Ggrow159921@gmail.Com,C11-0001572-LIC
Flora California,Greenfield Organix C2,flora-california,other,,,Not Published,Data Not Available,CA,Data Not Available,US,,,(831) 207-4377,Admin@floraca.Com,C11-0001396-LIC
"GREENFIELDS GROUP, INC",,greenfields-group-inc,other,,,Not Published,Data Not Available,CA,Data Not Available,US,,,(760) 502-0202,Info@greenfields420.Com,C11-0001893-LIC
Data Not Available,"Greenhouse Herbal Center, LLC",data-not-available,other,,,Not Published,Data Not Available,CA,Data Not Available,US,,,(323) 533-4842,John@greenhouseherbalcenter.Com,C11-0000985-LIC
"GREENLEAF PROCESSORS, INC.",,greenleaf-processors-inc,other,,,Not Published,Data Not Available,CA,Data Not Available,US,,,(530) 619-0064,Brett@greenleafprocessors.Com,C11-0000425-LIC
GREENPOINT HOLDINGS LLC,,greenpoint-holdings-llc,other,,,Not Published,Data Not Available,CA,Data Not Available,US,,,(310) 651-8950,Hab@greenpointgroupLLC.Com,C11-0000018-LIC
Grow Organic Inc,"Grow Organic, Inc",grow-organic-inc,other,,,Not Published,Data Not Available,CA,Data Not Available,US,,,(818) 482-0358,Groworganic5@rffire.Com,C11-0001988-LIC
"Growth Spike Holdings, LLC",,growth-spike-holdings-llc,other,,,Not Published,Data Not Available,CA,Data Not Available,US,,,(210) 885-0517,Sparksgrowthspike@gmail.Com,C11-0001741-LIC
"GSFD, LLC",Gsfd LLC,gsfd-llc,other,,,Not Published,Data Not Available,CA,Data Not Available,US,,,(559) 786-8882,Bruce@greensmartfarmer.Com,C11-0000097-LIC
GUPPY GO,Guppygo LLC,guppy-go,other,,,Not Published,Data Not Available,CA,Data Not Available,US,,,(323) 629-5597,Mark@utbventures.Com,C11-0002040-LIC
Bear Humboldt,Hailos Inc.,bear-humboldt,other,,,Not Published,Data Not Available,CA,Data Not Available,US,,,(805) 689-3010,Stacia@bearhumboldt.Com,C11-0001975-LIC
Halcyon Distribution,,halcyon-distribution,other,,,Not Published,Data Not Available,CA,Data Not Available,US,,,(415) 582-0721,Diamonddistroservices@gmail.Com,C11-0001785-LIC
Half Moon Grow,"Half Moon Grow, Inc.",half-moon-grow,other,,,Not Published,Data Not Available,CA,Data Not Available,US,,,(626) 673-9000,Aneese@halfmoongrow.Com,C11-0001689-LIC
"HAMMERJACK USA, INC.",,hammerjack-usa-inc,other,,,Not Published,Data Not Available,CA,Data Not Available,US,,,(415) 385-7073,Ruellm@hammerjack-Usa.Com,C11-0001617-LIC
Grass Valley Distribution Company,Hapisap Corporation,grass-valley-distribution-company,other,,,Not Published,Data Not Available,CA,Data Not Available,US,,,(916) 389-0113,Hello@hapisap.Com,C11-0001075-LIC
Happy Travels,"Happy Travels, LLC",happy-travels,other,,,Not Published,Data Not Available,CA,Data Not Available,US,,,(949) 412-7095,Dgoldman@is-Cg.Com,C11-0001537-LIC
Happy Valley Manufacturing and Distribution LLC,,happy-valley-manufacturing-and-distribution-llc,other,,,Not Published,Data Not Available,CA,Data Not Available,US,,,(310) 721-9113,Dabbssam@yahoo.Com,C11-0001650-LIC
Buddies Brand,"Hash Tag Distribution, Inc.",buddies-brand,other,,,Not Published,Data Not Available,CA,Data Not Available,US,,,(530) 262-2174,Bcochran@tlblinc.Com,C11-0000752-LIC
Elevated Cannabis Co.,Hayvenhealth LLC,elevated-cannabis-co,other,,,Not Published,Data Not Available,CA,Data Not Available,US,,,(818) 489-8474,Kevinkrivitsky@gmail.Com,C11-0001423-LIC
HD HEALTH INDUSTRIES,,hd-health-industries,other,,,Not Published,Data Not Available,CA,Data Not Available,US,,,(323) 702-1869,Melhoward40@gmail.Com,C11-0000894-LIC
HDO13 Holdings LLC,,hdo13-holdings-llc,other,,,Not Published,Data Not Available,CA,Data Not Available,US,,,(909) 354-8000,Cannabislicenses@industrialintegritysolutions.Com,C11-0001400-LIC
HDO3 Holdings LLC,,hdo3-holdings-llc,other,,,Not Published,Data Not Available,CA,Data Not Available,US,,,(909) 354-8000,Cannabislicenses@industrialintegritysolutions.Com,C11-0001341-LIC
"HEALING HERB FARMS, INC.",,healing-herb-farms-inc,other,,,Not Published,Data Not Available,CA,Data Not Available,US,,,(707) 394-0922,Keith@healingherbfarms.Com,C11-0001559-LIC
Hera Distribution LLC,,hera-distribution-llc,other,,,Not Published,Data Not Available,CA,Data Not Available,US,,,(909) 636-6959,Mstew84@yahoo.Com,C11-0001544-LIC
"HerbGirl, Inc.",,herbgirl-inc,other,,,Not Published,Data Not Available,CA,Data Not Available,US,,,(760) 419-9353,Linzie@campbeLLCertified.Com,C11-0001597-LIC
"Henry's Original, Artifact","Heritage Holding Of California, Inc.",henrys-original-artifact,other,,,Not Published,Data Not Available,CA,Data Not Available,US,,,(707) 841-6023,Joshua@henrysoriginal.Com,C11-0000891-LIC
"HERO ALISAL, LLC",,hero-alisal-llc,other,,,Not Published,Data Not Available,CA,Data Not Available,US,,,(714) 485-7379,License@peoplescali.Com,C11-0000478-LIC
HERO SPENCE,"Hero Spence, LLC",hero-spence,other,,,Not Published,Data Not Available,CA,Data Not Available,US,,,(714) 485-7379,License@peoplescali.Com,C11-0000416-LIC
HHA Cabrito LLC,,hha-cabrito-llc,other,,,Not Published,Data Not Available,CA,Data Not Available,US,,,(818) 461-2410,Hhacabrito@gmail.Com,C11-0001538-LIC
Hierba Buena LA,Hierba Buena La LLC,hierba-buena-la,other,,,Not Published,Data Not Available,CA,Data Not Available,US,,,(323) 573-2562,Mnuno@hierbabuenala.Com,C11-0001977-LIC
"HIGH CALIBER ORGANICS, INC.",,high-caliber-organics-inc,other,,,Not Published,Data Not Available,CA,Data Not Available,US,,,(866) 684-2879,Tfogwell@hcorganics.Com,C11-0000064-LIC
"High Desert Research and Development, Inc.",,high-desert-research-and-development-inc,other,,,Not Published,Data Not Available,CA,Data Not Available,US,,,(949) 444-9824,Wade@hdcgrow.Com,C11-0000509-LIC
